S. No.,State,District,Location,Longitude,Latitude,Year,pH,EC (ÂµS/cm at,CO3 (mg/L),HCO3,Cl (mg/L),F (mg/L),SO4,NO3,PO4,Total Hardness,Ca (mg/L),Mg (mg/L),Na (mg/L),K (mg/L),Fe (ppm),As (ppb),U (ppb)
1089,Chandigarh Ut,Chandigarh,Burail,76.7592,30.7101,2023,8.05,870,0,439,57,1.27,24,1,0.1,240,56,24,106,9,0.02,2.13,1.93
1090,Chandigarh Ut,Chandigarh,Imd Sector 39,76.731,30.74,2023,8.18,229,0,61,36,0.45,19,2,0,110,24,12,6,2,0.01,1.9,2.08
1091,Chandigarh Ut,Chandigarh,Maloya,76.7182,30.7519,2023,7.92,679,0,293,57,0.96,5,6,0,230,32,36,49,2,0.31,0.28,0.76
1092,Chandigarh Ut,Chandigarh,New Karsan Colony,76.7929,30.6928,2023,7.77,520,0,293,14,0.97,14,3,0,180,52,12,48,3,0.02,0.23,3.45
1093,Chandigarh Ut,Chandigarh,Sector 10C,76.794,30.755,2023,7.74,285,0,110,36,0.56,14,2,0,145,24,21,6,2,0.02,0.51,1.77
1094,Chandigarh Ut,Chandigarh,Sector 31,76.7759,30.7036,2023,7.78,700,0,354,43,0.93,19,9,0,270,24,51,52,3,0.03,0.2,6.27
1095,Chandigarh Ut,Chandigarh,Sector 39-D,76.728,30.743,2023,7.57,621,0,281,43,0.92,10,18,0,270,40,41,25,1,0.3,0.14,8.41
1096,Chandigarh Ut,Chandigarh,Sector-46,76.769,30.703,2023,8.25,270,0,122,21,0.5,10,3,0,130,28,15,6,2,0.01,1.76,2.3
2700,Jammu & Kashmir,Reasi,Aliyah,74.553,33.165,2023,7.35,720,0,522,7,0.22,12,7,0.22,424,146,15,7,1,-0.04,0.23,1.15
2701,Jammu & Kashmir,Reasi,Bhambla,74.5771,33.0519,2023,7.1,1230,0,638,99,0.28,54,6,0,556,194,17,88,2,-0.03,0.42,4.39
2702,Jammu & Kashmir,Reasi,Dadua,74.6397,33.0716,2023,7.42,690,0,443,20,0.2,16,8,0,379,128,15,13,1,-0.04,0.15,1.6
2703,Jammu & Kashmir,Reasi,Garan Jagir,74.6489,33.0709,2023,7.44,750,0,510,12,0.29,17,7,0,404,132,18,20,1,-0.04,0.14,3.68
2704,Jammu & Kashmir,Reasi,Nanora,74.6311,33.1281,2023,7.38,720,0,504,12,0.22,20,0,0,399,119,24,15,8,-0.04,0.65,1.9
2705,Jammu & Kashmir,Baramulla,Binner,74.3553,34.2319,2023,7.46,520,0,331,7,0.18,9,5,0,246,60,23,20,1,0.44,5.76,0.01
2706,Jammu & Kashmir,Baramulla,Jambazpora,74.3633,34.2192,2023,7.33,687,0,397,25,0.41,15,4,0,307,91,18,31,1,-0.01,0.83,0.51
2707,Jammu & Kashmir,Baramulla,Uplna,74.3975,34.2008,2023,7.31,1290,0,546,65,0.34,51,139,0,569,185,27,55,14,-0.02,0.54,1.79
2708,Jammu & Kashmir,Baramulla,Lolipora,74.5364,34.2164,2023,7.06,1655,0,419,274,0.33,126,25,0,663,199,41,109,5,-0.01,0.41,4.07
2709,Jammu & Kashmir,Baramulla,Hadipora,74.3908,34.2914,2023,6.75,826,0,196,112,0.16,48,37,0,318,96,19,43,2,-0.02,0.56,0.25
2710,Jammu & Kashmir,Baramulla,Mazbugh,74.4294,34.2781,2023,7.02,863,0,510,35,0.18,20,6,0,420,127,26,33,3,0.01,1.65,2.05
2711,Jammu & Kashmir,Baramulla,Said Pora,74.4631,34.3211,2023,7.03,468,0,231,28,0.1,19,4,0,220,64,15,13,1,-0.02,0.16,0.28
2712,Jammu & Kashmir,Baramulla,Bomai,74.4213,34.3564,2023,6.78,594,0,395,8,0.22,4,3,0,285,81,21,18,4,25.28,51.37,0.23
2713,Jammu & Kashmir,Baramulla,Badran,74.5764,34.0931,2023,7.13,346,0,210,8,0.16,9,3,0,171,54,9,8,1,1.84,0.13,0.17
2714,Jammu & Kashmir,Baramulla,Waripora,74.5611,34.0906,2023,7.6,652,0,389,28,0.36,11,3,0,322,112,11,15,2,6.59,0.39,1.12
2715,Jammu & Kashmir,Handwara,Hampora,74.3272,34.3564,2023,7.18,612,0,425,5,0.12,5,6,0.84,312,91,22,19,1,-0.03,6.87,0.01
2716,Jammu & Kashmir,Jammu,Chowki Chora,74.6515,33.0224,2023,7.27,490,0,261,20,0.23,39,6,0.37,222,75,9,21,10,-0.04,2.55,1.29
2717,Jammu & Kashmir,Jammu,Gura (Akhnoor),74.708,32.8813,2023,7.13,1340,0,777,82,0.45,20,5,2.11,627,146,65,51,16,0.12,1.04,0.11
2718,Jammu & Kashmir,Jammu,Jourian,74.577,32.8331,2023,7.36,810,0,376,35,0.22,49,62,0,418,140,17,21,6,-0.01,0.2,1.74
2719,Jammu & Kashmir,Jammu,Leherian,74.6885,32.8693,2023,7.12,630,0,401,8,0.25,22,4,0,340,94,26,8,3,-0.02,2.49,0.78
2720,Jammu & Kashmir,Jammu,Tanda Sheeda,74.6988,32.9722,2023,7.12,500,0,340,7,0.17,9,8,0,283,81,19,6,2,-0.03,0.15,0.87
2721,Jammu & Kashmir,Jammu,Arnia Ii,74.7986,32.5203,2023,7.08,920,0,454,38,0.31,71,55,0,452,146,21,42,18,2.63,0.24,4.56
2722,Jammu & Kashmir,Jammu,Batera,74.7464,32.8485,2023,7.16,580,0,339,10,0.21,37,3,0,323,90,24,6,2,-0.01,0.63,0.86
2723,Jammu & Kashmir,Jammu,Dharam Khu,74.7633,32.86,2023,7.18,610,0,388,7,0.27,20,8,0,338,106,18,5,3,-0.03,0.48,1.02
2724,Jammu & Kashmir,Jammu,Garhi (Jammu),74.7656,32.7907,2023,7.07,1080,0,598,44,0.43,57,34,0,567,166,38,38,3,0.03,0.36,2.42
2725,Jammu & Kashmir,Jammu,Kangar,74.846,32.8401,2023,7.27,580,0,376,8,0.27,7,19,0,300,96,15,14,1,-0.01,0.19,0.37
2726,Jammu & Kashmir,Jammu,Khairi (Raipur),74.8575,32.8076,2023,6.58,590,0,296,18,0.46,27,25,0,290,86,18,14,1,-0.03,0.29,0.2
2727,Jammu & Kashmir,Jammu,Lower Barnai,74.7921,32.7626,2023,7.25,630,0,376,13,0,26,3,0.59,285,80,21,9,37,0.08,6.44,0.19
2728,Jammu & Kashmir,Jammu,Muthi,74.7997,32.7505,2023,6.86,760,0,364,43,0.28,77,3,0,365,88,35,31,2,-0.04,0.32,0.95
2729,Jammu & Kashmir,Jammu,Pata Khu,74.7716,32.84,2023,7.14,640,0,429,8,0.26,20,0,0,357,110,19,8,3,-0.04,0.43,1.19
2730,Jammu & Kashmir,Jammu,Shama Chak,74.7419,32.8282,2023,7.21,700,0,392,15,0.29,35,26,0,352,96,27,19,12,-0.04,0.41,1.56
2731,Jammu & Kashmir,Jammu,Sumah,74.6702,32.9573,2023,7.09,640,0,417,13,0.37,12,3,0,357,120,13,9,2,0.54,0.17,0.14
2732,Jammu & Kashmir,Jammu,Bhagwana Chak,74.5695,32.8561,2023,7.24,420,0,271,7,0.24,7,3,0,199,66,9,17,1,-0.03,0.19,0.57
2733,Jammu & Kashmir,Jammu,Devipura,74.6506,32.8556,2023,7.69,510,0,314,5,0.2,24,9,0,289,82,21,4,1,0.14,0.09,1.27
2734,Jammu & Kashmir,Jammu,Taryai,74.6134,32.8696,2023,6.81,410,0,245,13,0.22,9,14,0,201,64,10,16,1,-0.03,0.09,0.53
2735,Jammu & Kashmir,Jammu,Allah,74.8367,32.5175,2023,7.28,1910,0,895,118,0.41,171,94,1,608,150,56,111,248,-0.04,1.16,3.31
2736,Jammu & Kashmir,Jammu,Bishnah,74.857,32.608,2023,7.67,1650,0,791,86,1.3,83,42,0,352,70,43,82,315,0.01,0.48,4.57
2737,Jammu & Kashmir,Jammu,Khairi (Bishnah),74.9064,32.5853,2023,7.22,760,0,480,12,0.34,14,7,0,350,82,35,39,3,-0.03,0.5,7.93
2738,Jammu & Kashmir,Jammu,Kothey Saini,74.8817,32.5772,2023,6.98,860,0,419,37,0.49,44,43,0,385,104,30,48,3,-0.03,0.15,2.02
2739,Jammu & Kashmir,Jammu,Kotli Charkan,74.8342,32.6156,2023,7.31,970,0,497,68,0.61,77,5,0,508,124,47,34,18,0.11,0.24,1.09
2740,Jammu & Kashmir,Jammu,Laswara,74.8369,32.585,2023,7.51,510,0,276,20,0.27,45,6,0,271,90,11,15,3,-0.04,0.38,1.22
2741,Jammu & Kashmir,Jammu,Palli,74.8886,32.6269,2023,7.05,960,0,510,42,0.92,50,9,0,440,98,47,54,2,0.03,0.28,8.18
2742,Jammu & Kashmir,Jammu,Poal Ii,74.82,32.51,2023,7.55,500,0,362,5,0.45,6,4,0,201,47,21,50,2,-0.04,0.26,5.67
2743,Jammu & Kashmir,Jammu,Rehal,74.8761,32.5614,2023,7.39,600,0,376,7,0.47,17,3,0,265,54,32,35,2,-0.01,0.41,5.89
2744,Jammu & Kashmir,Jammu,Salehar Ii,74.8181,32.5603,2023,7.55,900,0,509,38,0.32,59,0,0.72,355,84,35,34,96,0.25,1.83,0.9
2745,Jammu & Kashmir,Jammu,Majua Laxmi,74.918,32.5552,2023,7.84,680,0,352,30,0.34,23,25,0,337,80,33,19,3,-0.03,0.3,3.53
2746,Jammu & Kashmir,Jammu,Upralakanhal,74.8833,32.6333,2023,8.04,600,0,350,18,0.62,25,17,0,186,46,17,79,1,-0.03,0.66,2.06
2747,Jammu & Kashmir,Jammu,Kot Kaswal,75.1083,32.7989,2023,6.81,760,0,468,20,0.27,27,16,0,415,138,17,18,1,-0.03,0.14,2.77
2748,Jammu & Kashmir,Jammu,Kunihala,75.0333,32.8372,2023,7.14,760,0,392,45,0.3,46,3,0,325,102,17,46,2,-0.01,1.36,2.69
2749,Jammu & Kashmir,Jammu,Sidhra,74.8947,32.7597,2023,7.03,1000,0,462,37,0.26,60,79,0,510,146,35,27,2,0.02,0.46,0.74
2750,Jammu & Kashmir,Jammu,Badsoo,75.0186,32.8525,2023,7.06,550,0,300,15,0.31,23,21,0,270,92,10,14,2,-0.02,0.38,3.5
2751,Jammu & Kashmir,Jammu,Greater Kailash,74.9305,32.6861,2023,7.07,740,0,400,23,0.26,25,33,0,387,135,12,16,1,-0.01,0.45,0.65
2752,Jammu & Kashmir,Jammu,Kah Pahuta,75.0417,32.8344,2023,6.9,640,0,325,32,0.24,29,15,0,305,96,16,25,1,-0.03,0.16,2.37
2753,Jammu & Kashmir,Jammu,Kaluchak,74.892,32.657,2023,7.07,530,0,325,10,0.27,9,14,0,261,79,16,17,2,-0.03,0.16,1.02
2754,Jammu & Kashmir,Jammu,Katcha Pind (Dansal),74.9953,32.8656,2023,6.9,890,0,497,37,0.37,45,5,0,450,140,24,34,2,-0.03,0.32,1.94
2755,Jammu & Kashmir,Jammu,Rangoora,74.8964,32.7506,2023,7.12,700,0,351,17,0.21,28,36,0,345,100,23,13,2,-0.02,0.48,0.7
2756,Jammu & Kashmir,Jammu,Surinsar,75.0431,32.7672,2023,7.68,940,0,598,22,0.49,45,7,0,440,74,62,68,6,-0.04,5.68,17.81
2757,Jammu & Kashmir,Jammu,Trikuta Nagar,74.88,32.7116,2023,7.12,770,0,376,32,0.35,29,43,0,360,110,21,29,6,-0.01,0.19,3.07
2758,Jammu & Kashmir,Jammu,Bakore,74.562,32.8062,2023,7.21,470,0,284,10,0.29,24,3,0,259,86,11,8,1,5.11,4.43,0.03
2759,Jammu & Kashmir,Jammu,Dhanpur,74.5402,32.8026,2023,7.57,610,0,376,7,0.13,30,13,0,348,122,11,8,1,0.96,0.08,5.89
2760,Jammu & Kashmir,Jammu,Gigrial,74.4818,32.7961,2023,7.25,1270,0,585,54,0.27,90,54,0,478,148,27,42,114,-0.04,2.58,4.68
2761,Jammu & Kashmir,Jammu,Hamirpur Sidhar,74.5256,32.7765,2023,7.2,1650,0,610,87,0.28,176,181,0,756,227,46,83,37,-0.04,0.63,10.5
2762,Jammu & Kashmir,Jammu,Kachrial,74.4385,32.8657,2023,7.36,600,0,376,10,0.22,21,3,0,313,110,10,6,22,-0.03,0.54,0.98
2763,Jammu & Kashmir,Jammu,Khour,74.5173,32.8294,2023,7.08,720,0,413,10,0.14,33,22,0,390,140,10,11,1,0.8,0.26,3.93
2764,Jammu & Kashmir,Jammu,Palatan,74.4486,32.837,2023,7.49,560,0,313,10,0.16,34,8,0,286,96,11,13,1,1.28,0.2,1.55
2765,Jammu & Kashmir,Jammu,Pangli Colony,74.5213,32.789,2023,7.48,530,0,350,8,0.24,12,3,0,283,100,7,6,8,0.06,1.02,1.05
2766,Jammu & Kashmir,Jammu,Senth,74.5099,32.7765,2023,7.84,1260,0,638,53,0,125,5,0.43,432,110,38,69,129,-0.01,7.45,0.94
2767,Jammu & Kashmir,Jammu,Gajansoo,74.7107,32.761,2023,7.16,810,0,456,30,0.39,46,5,0,398,116,27,34,5,0.07,4.83,2.34
2768,Jammu & Kashmir,Jammu,Gho Manhasan (Talab Tillo),74.7396,32.7229,2023,7.21,990,0,555,47,0.48,52,5,0,507,126,47,39,2,0.34,0.36,11.12
2769,Jammu & Kashmir,Jammu,Jhiri,74.733,32.8255,2023,7.3,540,0,327,10,0.2,27,10,0,294,82,22,8,5,-0.04,0.69,1.2
2770,Jammu & Kashmir,Jammu,Marh,74.7457,32.7764,2023,6.88,910,0,456,45,0.35,74,10,0,475,132,35,28,3,-0.03,0.14,3.03
2771,Jammu & Kashmir,Jammu,Nagbani,74.7628,32.762,2023,7.51,1090,0,530,30,0.99,137,32,0,450,100,49,97,10,-0.03,3.07,7.51
2772,Jammu & Kashmir,Jammu,Patyale Chak,74.776,32.7625,2023,7.49,950,0,601,25,1.06,51,5,0,427,80,55,78,3,0.01,1.89,3.1
2773,Jammu & Kashmir,Jammu,Miran Sahib,74.7947,32.6458,2023,7.45,820,0,478,30,0.35,43,47,0,447,130,29,39,2,-0.04,0.19,0.5
2774,Jammu & Kashmir,Jammu,Khanpur (Nagrota),74.8922,32.7906,2023,7.3,620,0,401,7,0.16,6,3,0,260,72,19,38,3,-0.03,0.98,1.82
2775,Jammu & Kashmir,Jammu,Nagrota,74.9207,32.804,2023,6.87,800,0,431,30,0.26,44,27,0,400,136,15,30,4,-0.03,0.51,2.71
2776,Jammu & Kashmir,Jammu,Jagati,74.8958,32.8056,2023,6.94,430,0,265,10,0.23,17,3,0,240,78,11,7,2,-0.03,0.19,5.32
2777,Jammu & Kashmir,Jammu,Sugetar,74.9583,32.8792,2023,6.94,680,0,413,22,0.34,20,5,0,295,98,12,49,2,-0.03,0.24,3.35
2778,Jammu & Kashmir,Jammu,Upper Ban,74.9383,32.8292,2023,6.6,230,0,148,5,0.24,8,3,0.22,125,44,4,4,1,-0.02,1.32,0.05
2779,Jammu & Kashmir,Jammu,Hamirpur Kohna,74.5497,32.7667,2023,7.3,970,0,505,20,0.34,66,55,0,478,140,32,17,43,1.06,2.09,15
2780,Jammu & Kashmir,Jammu,Sajwal,74.593,32.7923,2023,7.39,650,0,405,5,0.46,46,0,0,357,102,24,9,9,2.08,1.57,3.12
2781,Jammu & Kashmir,Jammu,Lalyal,74.7739,32.6644,2023,7.21,770,0,509,15,0.27,28,4,0,397,90,11,20,25,-0.04,0.21,2.3
2782,Jammu & Kashmir,Jammu,Makwal,74.7169,32.6933,2023,7.6,1330,0,638,76,0.33,215,0,0,648,142,71,87,42,-0.03,4.13,1.52
2783,Jammu & Kashmir,Jammu,Sohanjana,74.7431,32.6972,2023,7.33,1040,0,601,43,0.25,64,10,0,497,146,32,32,63,0.32,1.41,2.84
2784,Jammu & Kashmir,Jammu,Agre Chak,74.7158,32.6225,2023,7.37,690,0,350,28,0.37,56,16,0,347,102,21,25,2,-0.02,0.57,2.28
2785,Jammu & Kashmir,Jammu,Bega,74.6681,32.6147,2023,7.29,550,0,350,8,0.5,31,11,0,312,98,16,8,1,0.48,0.18,1.12
2786,Jammu & Kashmir,Jammu,Bera,74.677,32.619,2023,7.51,530,0,337,8,0.59,27,3,0,281,72,24,18,2,1.02,0.13,2.67
2787,Jammu & Kashmir,Jammu,Nikowal,74.7056,32.5083,2023,7.7,970,0,613,45,0.56,33,9,0,422,72,58,93,4,-0.01,0.39,18.77
2788,Jammu & Kashmir,Jammu,Sei Khurd,74.7247,32.5075,2023,7.39,1050,0,598,49,0.45,60,76,0,467,134,32,78,21,-0.03,0.34,6.58
2789,Jammu & Kashmir,Jammu,Kalah,74.4484,32.9207,2023,7.27,910,0,505,40,0.63,44,54,0,443,138,27,48,2,0,0.55,4.5
2790,Jammu & Kashmir,Jammu,Baradow,74.4251,32.9093,2023,7.37,730,0,450,7,0.24,16,30,0,418,152,10,9,1,-0.01,0.13,0.96
2791,Jammu & Kashmir,Jammu,Jogwan,74.4418,32.9325,2023,7.17,690,0,401,12,0.28,20,32,0,378,134,11,10,1,-0.02,0.18,1.26
2792,Jammu & Kashmir,Jammu,Chatta,74.9344,32.693,2023,6.92,510,0,313,10,0.33,15,3,0,271,97,7,10,2,-0.03,0.43,0.95
2793,Jammu & Kashmir,Jammu,Satwari,74.8458,32.6889,2023,7.46,870,0,468,32,0.2,35,45,0,460,128,34,28,2,-0.04,0.17,1.84
2794,Jammu & Kashmir,Jammu,Suchetgarh Ii,74.6756,32.5675,2023,7.69,1180,0,754,38,1.21,61,5,0,492,68,78,127,4,-0.04,2.68,9.14
2795,Jammu & Kashmir,Kathua,Bhagwal,75.3667,32.45,2023,6.84,360,0,224,8,0.25,11,3,0,185,58,10,11,2,0.06,0.11,0.39
2796,Jammu & Kashmir,Kathua,Patiari,75.4417,32.3958,2023,6.7,300,0,142,8,0.21,21,10,0,145,48,6,7,1,0.59,0.07,0.06
2797,Jammu & Kashmir,Kathua,Billawar,75.6083,32.6131,2023,7,870,0,505,40,0.32,30,5,0.48,415,142,15,41,15,-0.03,2.6,1.32
2798,Jammu & Kashmir,Kathua,Lakri,75.4153,32.6561,2023,7.01,710,0,388,35,0.2,26,3,0,330,106,16,32,7,-0.01,0.41,2.28
2799,Jammu & Kashmir,Kathua,Mandli,75.5083,32.6356,2023,6.86,730,0,431,22,0.29,28,3,0,335,104,18,36,11,-0.03,0.43,2.09
2800,Jammu & Kashmir,Kathua,Nagrota?Gujroo,75.3939,32.6464,2023,6.82,1000,0,456,77,0.29,47,29,0,395,126,19,77,9,-0.02,0.29,1.21
2801,Jammu & Kashmir,Kathua,Pallan,75.5658,32.5564,2023,6.32,340,0,185,15,0.17,19,3,0,165,52,9,13,1,-0.03,0.15,0.19
2802,Jammu & Kashmir,Kathua,Phinter,75.5444,32.5828,2023,6.24,440,0,197,30,0.2,21,13,0,205,64,11,16,3,-0.03,0.19,0.22
2803,Jammu & Kashmir,Kathua,Ramkot,75.3361,32.6417,2023,6.86,790,0,505,15,0.24,17,3,0,405,126,22,22,7,-0.03,0.79,2.61
2804,Jammu & Kashmir,Kathua,Lokli,75.2733,32.5442,2023,6.65,280,0,156,8,0.17,13,12,0,145,50,5,4,1,-0.03,0.19,0.03
2805,Jammu & Kashmir,Kathua,Nauni,75.3019,32.5581,2023,6.9,640,0,392,15,0.28,22,6,0,345,114,15,13,2,-0.03,0.23,3.18
2806,Jammu & Kashmir,Kathua,Patyari Ii,75.265,32.547,2023,7.22,770,0,467,25,0.27,22,3,0,395,130,17,20,2,-0.02,1.23,2.09
2807,Jammu & Kashmir,Kathua,Saida,75.293,32.551,2023,6.92,450,0,261,10,0.25,19,6,0,240,82,9,8,3,-0.03,0.43,1.07
2808,Jammu & Kashmir,Kathua,Chakara,75.259,32.418,2023,7.33,300,0,194,5,0.25,7,3,0,145,48,6,15,1,-0.04,0,0
2809,Jammu & Kashmir,Kathua,Chakhariya,75.3667,32.3889,2023,7.14,580,0,375,10,0.16,13,11,0,322,115,9,14,5,0.05,0.16,1.26
2810,Jammu & Kashmir,Kathua,Chan Khatrian,75.2458,32.4875,2023,7.05,370,0,205,10,0.18,12,12,0,185,62,7,12,2,-0.01,0.2,0.86
2811,Jammu & Kashmir,Kathua,Chanranga,75.3306,32.4833,2023,7.06,370,0,218,8,0.15,12,4,0,160,52,7,17,1,1.04,0.05,0.16
2812,Jammu & Kashmir,Kathua,Chapki Kalan,75.3147,32.4472,2023,6.54,270,0,166,5,0.2,11,9,0,140,46,6,9,1,-0.03,0.21,0.2
2813,Jammu & Kashmir,Kathua,Dulme Chak,75.1833,32.4333,2023,7.16,510,0,336,5,0.26,7,3,0.22,260,74,18,19,2,0.05,0.22,2.05
2814,Jammu & Kashmir,Kathua,Feruchak,75.274,32.468,2023,7.04,580,0,367,13,0.32,16,3,0,300,100,12,17,2,-0.01,0.23,1.77
2815,Jammu & Kashmir,Kathua,Jandi (New),75.2458,32.4625,2023,7.3,910,0,417,43,0.31,44,87,0,420,140,17,51,2,1.02,0.08,0.97
2816,Jammu & Kashmir,Kathua,Khanpur,75.3561,32.425,2023,6.93,310,0,166,7,0.26,13,3,0,145,44,9,11,1,-0.02,0.16,0.64
2817,Jammu & Kashmir,Kathua,Konthal,75.2603,32.4236,2023,7,320,0,197,5,0.24,7,4,0,150,50,6,14,1,0.02,0.36,0.86
2818,Jammu & Kashmir,Kathua,Kootah,75.2417,32.5114,2023,6.28,510,0,185,27,0.21,23,77,0,235,70,14,18,5,-0.02,0.27,0.1
2819,Jammu & Kashmir,Kathua,Lale Chak,75.1978,32.4542,2023,7.21,420,0,274,5,0.3,8,6,0,220,70,11,13,1,0.06,0.16,1.25
2820,Jammu & Kashmir,Kathua,Londi,75.2125,32.425,2023,7.25,480,0,299,13,0.24,9,14,0,245,72,16,15,2,-0.02,0.22,1.48
2821,Jammu & Kashmir,Kathua,Nilcha,75.2542,32.5597,2023,7.09,320,0,201,8,0.29,7,3,0,175,56,9,7,1,-0.04,0.15,0.44
2822,Jammu & Kashmir,Kathua,Phalora,75.1342,32.4778,2023,7.7,990,0,567,45,0.61,40,12,0,390,116,24,92,2,-0.03,0.17,3.33
2823,Jammu & Kashmir,Kathua,Barni,75.656,32.402,2023,6.9,350,0,219,7,0.31,11,3,0,181,52,12,12,1,-0.02,0.29,0.24
2824,Jammu & Kashmir,Kathua,Kathua,75.5292,32.3639,2023,6.56,450,0,210,25,0.19,28,5,0,150,46,9,42,6,1.37,0.87,0.08
2825,Jammu & Kashmir,Kathua,Kothian,75.5083,32.3667,2023,6.38,370,0,138,15,0.22,36,33,0,161,48,10,14,2,1.81,0.06,0.03
2826,Jammu & Kashmir,Kathua,Lakhanpur Fort,75.6,32.381,2023,6.51,310,0,156,15,0.28,26,5,0,151,48,7,12,5,0.21,0.47,0.06
2827,Jammu & Kashmir,Kathua,Mukandpur,75.3689,32.3694,2023,7.24,410,0,275,7,0.18,11,7,0,226,81,6,11,2,-0.03,0.23,0.75
2828,Jammu & Kashmir,Kathua,Nanke Chak (Sherpur),75.468,32.381,2023,6.83,190,0,105,8,0.12,16,3,0,90,29,4,8,1,5.78,0.04,0.11
2829,Jammu & Kashmir,Kathua,Jindor,75.597,32.392,2023,6.62,420,0,231,15,0.34,20,3,0,191,60,10,21,4,0.02,1.75,0.24
2830,Jammu & Kashmir,Kathua,Gangu Chak,75.2628,32.4014,2023,7.42,1480,0,783,87,0.64,90,13,0,610,156,54,126,16,-0.03,0.96,1.9
2831,Jammu & Kashmir,Kathua,Karol Krishna,75.2361,32.3958,2023,7.37,880,0,530,35,0.4,21,11,0,295,76,26,99,3,-0.03,0.43,5.36
2832,Jammu & Kashmir,Kathua,Kotepanu,75.3758,32.3458,2023,7.2,520,0,338,7,0.25,19,3,0,281,99,9,15,3,1.61,2.25,0.81
2833,Jammu & Kashmir,Kathua,Khukhial,75.4667,32.35,2023,6.96,800,0,431,35,0.26,41,5,0.43,347,101,23,28,46,0.5,3.75,0.95
2834,Jammu & Kashmir,Kathua,Nagri,75.4333,32.35,2023,7.05,490,0,288,12,0.28,29,3,0,251,81,12,17,3,4.17,4.83,0.15
2835,Jammu & Kashmir,Kathua,Sumwan,75.42,32.394,2023,7.24,530,0,314,8,0.27,18,9,0,280,100,7,10,3,-0.02,0.16,1.35
2836,Jammu & Kashmir,Kupwara,Kunel,74.2853,34.3322,2023,7.34,342,0,203,5,0.21,8,3,0,158,48,10,10,1,-0.03,0.11,0.03
2837,Jammu & Kashmir,Kupwara,Drugmulla,74.2869,34.5056,2023,7.15,496,0,264,17,0.11,15,13,0,231,77,9,14,2,-0.02,0.32,0.27
2838,Jammu & Kashmir,Kupwara,Halmathpora (Chota Mohalla),74.2364,34.5708,2023,6.9,332,0,193,13,0.24,6,3,0,153,50,7,11,1,0,0.89,0.23
2839,Jammu & Kashmir,Kupwara,Khanpora,74.2731,34.4386,2023,7.35,368,0,227,5,0.26,7,6,0,184,56,11,8,1,0.03,0.2,1.57
2840,Jammu & Kashmir,Kupwara,Panipora (Sagipora),74.3644,34.4122,2023,6.88,284,0,166,5,0.15,5,5,0,134,42,7,9,1,0.01,0.57,0.42
2841,Jammu & Kashmir,Kupwara,Mir Mohalla (Katyan Wali),74.3847,34.5444,2023,7.3,244,0,151,5,0.25,4,3,0,119,36,7,10,0,5.07,0.03,0.02
2842,Jammu & Kashmir,Kupwara,Palpora,74.3577,34.3411,2023,7.05,376,0,191,15,0.2,12,5,0,168,52,10,13,2,-0.01,2.3,0.34
2843,Jammu & Kashmir,Kupwara,Batpora Bala,74.0889,34.4944,2023,6.56,207,0,104,10,0.1,13,6,0,85,26,5,13,1,-0.02,0.29,0.04
2844,Jammu & Kashmir,Kupwara,Panzgam,74.0771,34.4834,2023,6.77,393,0,214,13,0.21,18,3,0,174,50,12,14,5,-0.02,0.33,0.14
2845,Jammu & Kashmir,Kupwara,Wasar Khoto,74.1061,34.5064,2023,6.74,274,0,140,15,0.09,8,4,0,129,42,6,10,2,-0.02,0.29,0.04
2846,Jammu & Kashmir,Kupwara,Guloora,74.3158,34.3875,2023,6.98,227,0,114,5,0.26,5,11,0,101,32,5,8,1,4.42,1.78,0
2847,Jammu & Kashmir,Kupwara,Magam,74.2328,34.4608,2023,7.24,367,0,233,5,0.17,5,3,0.8,169,48,12,17,0,0.48,20.03,0.02
2848,Jammu & Kashmir,Kupwara,Radbug,74.3025,34.4606,2023,7.07,1030,0,397,112,0.2,39,9,0,437,129,27,50,3,-0.02,0.4,0.13
2849,Jammu & Kashmir,Kupwara,Tarich,74.3256,34.4356,2023,6.9,319,0,168,15,0.13,10,4,0.69,136,42,7,12,4,-0.02,0.35,0.04
2850,Jammu & Kashmir,Kupwara,Chanjmul,74.1822,34.3917,2023,6.68,272,0,132,10,0.13,9,11,0,129,38,9,6,0,-0.04,0.09,0.03
2851,Jammu & Kashmir,Kupwara,Cherkut,74.3264,34.5444,2023,6.81,329,0,181,13,0.17,10,3,0,134,38,10,16,6,0.02,1.14,0.04
2852,Jammu & Kashmir,Kupwara,Lassipora,74.3831,34.5081,2023,6.42,427,0,139,33,0.08,16,53,1.29,144,42,10,30,3,0,1.98,0.01
2853,Jammu & Kashmir,Kupwara,Dohama,74.1475,34.4881,2023,7.04,634,0,257,43,0.21,33,24,0,282,77,23,18,1,-0.04,0.72,0.1
2854,Jammu & Kashmir,Kupwara,Gulgam,74.2194,34.5369,2023,6.96,789,0,308,55,0.22,31,54,0,287,82,21,45,11,-0.02,0.35,0.14
2855,Jammu & Kashmir,Kupwara,Trehgam,74.1753,34.5167,2023,6.96,855,0,488,33,0.18,34,13,0,363,108,23,59,1,-0.02,0.14,2.46
2856,Jammu & Kashmir,Kupwara,Wadipora,74.2333,34.4097,2023,6.91,582,0,267,28,0.14,18,36,0,265,79,17,19,0,-0.02,0.2,0.29
2857,Jammu & Kashmir,Mahreen,Hore,75.291,32.423,2023,6.94,280,0,166,5,0.21,9,6,0,145,50,5,9,1,-0.03,0.59,0.44
2858,Jammu & Kashmir,Rajouri,Dayala,74.3688,33.2364,2023,7.21,420,0,283,5,0.18,13,3,0,228,79,7,9,1,-0.04,0.13,0.97
2859,Jammu & Kashmir,Rajouri,Dharamshal,74.4057,33.1385,2023,6.97,730,0,407,46,0.21,12,3,0,342,117,12,32,2,-0.04,1.47,1
2860,Jammu & Kashmir,Rajouri,Lower Kharak,74.4165,33.1662,2023,6.89,760,0,505,10,0.23,14,10,0,406,131,19,16,2,-0.04,0.15,3.63
2861,Jammu & Kashmir,Rajouri,Panja,74.4157,33.1801,2023,7.05,850,0,505,28,0.33,27,28,0,460,153,19,19,2,0.01,0.31,2.88
2862,Jammu & Kashmir,Rajouri,Solki,74.4328,33.1606,2023,6.91,790,0,518,15,0.23,16,10,0,421,137,19,17,4,-0.04,0.15,2.3
2863,Jammu & Kashmir,Rajouri,Bagnoti,74.3033,33.1426,2023,7.31,850,0,442,45,0.38,43,15,0,395,132,16,46,2,-0.04,0.12,4.38
2864,Jammu & Kashmir,Rajouri,Bareri,74.2251,33.1554,2023,7.27,1630,0,613,239,0.51,92,44,0,685,192,50,143,7,-0.04,0.31,11.62
2865,Jammu & Kashmir,Rajouri,Bhatta Morh,74.1876,33.2148,2023,7.07,640,0,419,10,0.26,13,10,0,302,99,13,29,2,0.11,0.17,2.63
2866,Jammu & Kashmir,Rajouri,Chowki Handa,74.1699,33.1731,2023,7.06,740,0,478,13,0.2,25,0,0,400,124,22,11,2,-0.04,0.48,1.95
2867,Jammu & Kashmir,Rajouri,Darhal Quilla,74.1505,33.2243,2023,6.92,660,0,431,10,0.21,14,3,0,351,125,10,9,1,-0.04,0.65,3.15
2868,Jammu & Kashmir,Rajouri,Ding,74.2763,33.0878,2023,7.09,620,0,314,20,0.29,25,33,0,302,89,19,21,1,-0.04,0.25,2.82
2869,Jammu & Kashmir,Rajouri,Gahgrot,74.265,33.0974,2023,7.31,710,0,442,10,0.23,29,12,0,350,100,24,32,1,-0.04,0.09,0.67
2870,Jammu & Kashmir,Rajouri,Jabah,74.3435,33.0683,2023,7.15,790,0,454,30,0.27,29,12,0,410,132,19,22,1,-0.03,0.32,2.56
2871,Jammu & Kashmir,Rajouri,Jhangar,74.0472,33.2404,2023,7.28,970,0,509,53,0.3,53,12,0,465,128,35,47,5,-0.04,0.28,1.93
2872,Jammu & Kashmir,Rajouri,Kalal,74.233,33.0802,2023,7.14,760,0,453,15,0.22,22,32,0,376,115,22,30,2,-0.02,0.12,1.98
2873,Jammu & Kashmir,Rajouri,Kalsian,74.1391,33.1844,2023,7.15,680,0,429,15,0.28,17,8,0,355,114,17,18,1,-0.04,0.09,1.39
2874,Jammu & Kashmir,Rajouri,Lam,74.127,33.2497,2023,7.18,770,0,351,41,0.23,65,3,0.88,342,107,18,21,26,-0.01,3.59,1.06
2875,Jammu & Kashmir,Rajouri,Laroka,74.0969,33.2356,2023,7.19,790,0,454,33,0.22,22,3,0,390,134,13,30,2,-0.04,0.87,1.56
2876,Jammu & Kashmir,Rajouri,Naunihal,74.2129,33.1718,2023,8.25,460,0,166,23,0.46,46,20,0,69,14,9,54,38,-0.04,1.81,0.81
2877,Jammu & Kashmir,Rajouri,Pokharni,74.1138,33.2714,2023,7.18,740,0,481,8,0.22,10,4,0,327,95,22,46,3,-0.03,0.29,1.45
2878,Jammu & Kashmir,Rajouri,Potha,74.3181,33.2812,2023,7.14,720,0,456,13,0.22,22,15,0,381,129,15,16,4,-0.04,0.1,1.13
2879,Jammu & Kashmir,Rajouri,Rumli Dara,74.2179,33.1226,2023,7.24,640,0,417,7,0.27,14,12,0,342,109,17,17,1,-0.04,0.05,0.48
2880,Jammu & Kashmir,Rajouri,Seri,74.2873,33.0833,2023,7.18,1320,0,453,177,0.29,78,53,0,584,173,38,85,1,-0.04,0.17,3.84
2881,Jammu & Kashmir,Rajouri,Sial,74.3158,33.0729,2023,7.25,680,0,441,12,0.33,20,3,0,351,113,17,22,1,-0.01,0.35,2.7
2882,Jammu & Kashmir,Rajouri,Chittiar,74.2834,33.2867,2023,7.09,410,0,271,5,0.18,8,3,0,228,77,9,6,1,-0.04,0.3,0.38
2883,Jammu & Kashmir,Rajouri,Siot,74.3788,33.1128,2023,6.8,1000,0,505,56,0.27,34,40,0,515,173,21,27,3,-0.03,0.28,4.23
2884,Jammu & Kashmir,Rajouri,Ainpur,74.4465,33.0422,2023,7.11,450,0,288,10,0.22,14,4,0,230,76,10,16,0,-0.04,0.17,0.46
2885,Jammu & Kashmir,Rajouri,Baja Bain,74.4136,33.0544,2023,6.85,800,0,362,53,0.39,60,52,0,385,120,21,35,2,-0.04,0.23,4.07
2886,Jammu & Kashmir,Rajouri,Bakhar,74.4275,33.088,2023,7.13,690,0,454,10,0.22,20,10,0,380,134,11,9,1,-0.03,0.34,2.02
2887,Jammu & Kashmir,Rajouri,Banpari,74.4566,33.0367,2023,7.29,670,0,417,15,0.25,23,9,0,360,122,13,13,1,-0.04,0.18,1.03
2888,Jammu & Kashmir,Rajouri,Channi Parat,74.464,33.0873,2023,7.05,520,0,339,8,0.33,14,4,0,257,83,12,19,3,-0.04,0.34,3.34
2889,Jammu & Kashmir,Rajouri,Dhok Baniyar,74.4124,33.0322,2023,7.17,720,0,429,20,0.19,21,14,0,350,106,21,27,1,0.01,0.11,2.65
2890,Jammu & Kashmir,Rajouri,Kangri (Grid Station),74.3916,33.0605,2023,6.9,580,0,325,13,0.28,18,19,0,295,92,16,15,1,-0.04,0.14,1.94
2891,Jammu & Kashmir,Rajouri,Marchola,74.4784,33.0884,2023,7.25,780,0,505,28,0.2,19,0,0,421,145,15,23,2,0.03,0.21,2.47
2892,Jammu & Kashmir,Rajouri,Salote,74.5244,33.0501,2023,7.11,650,0,313,35,0.27,36,9,0,325,100,18,18,1,-0.04,0.5,1.49
2893,Jammu & Kashmir,Rajouri,Thanda Pani,74.4868,33.0673,2023,7.25,810,0,455,47,0.28,48,13,0,449,158,13,31,1,-0.04,0.15,1.83
2894,Jammu & Kashmir,Rajouri,Thangrot,74.5883,33.1418,2023,7.33,730,0,510,12,0.23,17,11,0,424,117,32,10,2,-0.04,0.13,0.79
2895,Jammu & Kashmir,Reasi,Talwara,74.8333,33.0917,2023,7.43,740,0,481,10,0.15,19,21,0,440,100,46,8,3,-0.03,0.25,0.54
2896,Jammu & Kashmir,Samba,Bassi Kalan,74.9014,32.6372,2023,7.37,790,0,388,48,0.23,27,21,0,402,119,26,16,2,0.83,0.07,3.92
2897,Jammu & Kashmir,Samba,Patli,74.9458,32.6083,2023,7.58,1180,0,686,10,0.82,52,15,0,275,68,26,199,2,0.06,0.4,2.78
2898,Jammu & Kashmir,Samba,Naran,75.1542,32.5042,2023,7.2,620,0,397,10,0.34,12,12,0,325,92,22,25,2,0.2,0.25,2.15
2899,Jammu & Kashmir,Samba,Sagoon,75.0772,32.7472,2023,7.32,600,0,351,12,0.25,24,3,0,275,72,23,22,6,-0.03,0.18,8.02
2900,Jammu & Kashmir,Samba,Daboh,75.105,32.5858,2023,7.25,920,0,397,45,0.24,37,94,0,460,162,13,29,2,-0.03,0.26,2.66
2901,Jammu & Kashmir,Samba,Dhora,75.14,32.61,2023,7.05,860,0,427,30,0.3,40,56,0,420,148,12,21,24,0.64,0.48,1.14
2902,Jammu & Kashmir,Samba,Kamila,75.0653,32.6092,2023,7.13,530,0,300,15,0.23,20,3,0,241,85,7,18,11,-0.01,0.29,1.13
2903,Jammu & Kashmir,Samba,Mothian Kalan,75.063,32.623,2023,7.21,850,0,538,28,0.32,14,5,0,437,145,18,32,2,12.73,0.11,1.12
2904,Jammu & Kashmir,Samba,Nud,75.1478,32.6125,2023,7.15,860,0,372,55,0.39,58,28,0,395,138,12,40,7,-0.03,0.35,10.31
2905,Jammu & Kashmir,Samba,Maheen Charkan,74.9867,32.6497,2023,7.14,440,0,250,8,0.3,27,3,1.53,216,58,17,3,18,-0.03,3.17,0.07
2906,Jammu & Kashmir,Samba,Birpur,74.9517,32.6555,2023,7.05,610,0,350,15,0.26,19,20,0,322,119,6,13,1,-0.01,0.46,1.56
2907,Jammu & Kashmir,Samba,Nagrota Uttarbani,75.065,32.6239,2023,7.3,1010,0,469,53,0.43,49,74,0,487,155,24,35,22,-0.01,0.68,2.93
2908,Jammu & Kashmir,Samba,Uttarbani,75.0636,32.6478,2023,7.22,890,0,519,38,0.28,26,5,0,467,119,41,21,10,-0.03,0.58,1.92
2909,Jammu & Kashmir,Samba,Madun,75.161,32.471,2023,7.18,720,0,439,20,0.45,17,11,0,335,82,30,42,2,-0.02,0.32,11.6
2910,Jammu & Kashmir,Samba,Sanoora,75.1778,32.4878,2023,7.01,420,0,268,7,0.26,14,3,0,225,72,11,12,3,-0.03,0.31,1.34
2911,Jammu & Kashmir,Samba,Didyal,74.9583,32.4703,2023,7.21,580,0,325,18,0.36,16,33,0,266,89,11,33,1,-0.03,0.11,2.88
2912,Jammu & Kashmir,Samba,Gho Brahmna,74.9541,32.556,2023,7.5,580,0,352,12,0.3,11,18,0,265,76,18,32,2,0.29,0.3,3.16
2913,Jammu & Kashmir,Samba,Gho Rakawalan,74.9489,32.5517,2023,7.51,460,0,249,12,0.49,17,17,0,171,30,23,34,6,0.27,1.84,6.92
2914,Jammu & Kashmir,Samba,Mahalshah Kalandrian,74.9425,32.5103,2023,7.26,1040,0,632,38,1.07,32,13,0,402,103,35,108,2,-0.02,0.52,7.55
2915,Jammu & Kashmir,Samba,Nandpur,74.8886,32.5181,2023,7.42,370,0,249,5,0.32,5,0,0,175,50,12,16,2,-0.03,0.66,2.69
2916,Jammu & Kashmir,Samba,Raghu Chak,75.2042,32.4861,2023,7.23,490,0,311,8,0.36,14,9,0,265,86,12,12,1,0.28,0.18,1.31
2917,Jammu & Kashmir,Samba,Bengular,75.0625,32.4944,2023,7.24,850,0,415,27,0.43,34,72,0,435,152,13,30,2,-0.03,0.3,0.64
2918,Jammu & Kashmir,Samba,Jasath,75.202,32.504,2023,6.54,730,0,323,45,0.28,33,61,0,350,104,22,30,5,-0.03,0.18,1.41
2919,Jammu & Kashmir,Samba,Pangdour,75.0722,32.5086,2023,7.61,580,0,336,7,0.22,13,34,0,310,110,9,14,1,0.04,0.09,0.55
2920,Jammu & Kashmir,Samba,Raiyan,75.125,32.5083,2023,7.4,430,0,281,5,0.36,10,9,0,225,78,7,13,1,-0.02,0.18,1.34
2921,Jammu & Kashmir,Samba,Sadoh,75.125,32.4708,2023,7.33,820,0,452,30,0.52,35,42,0,440,118,35,25,3,-0.03,0.31,1.15
2922,Jammu & Kashmir,Samba,Samba,75.1192,32.5575,2023,6.97,960,0,464,60,0.24,35,40,0,425,148,13,55,7,-0.01,0.84,0.4
2923,Jammu & Kashmir,Samba,Supwal,75.0667,32.5583,2023,7.2,800,0,469,25,0.35,21,30,0,412,133,20,28,2,-0.03,0.17,2.63
2924,Jammu & Kashmir,Samba,Painthi,75.1556,32.593,2023,7,400,0,232,10,0.22,20,9,0,215,78,5,8,2,0.01,0.35,0.44
2925,Jammu & Kashmir,Samba,Gudwal,75.0097,32.55,2023,7.07,890,0,438,68,0.27,31,6,0,372,125,15,47,18,0.89,1.48,0.34
2926,Jammu & Kashmir,Samba,Kainthpur,74.975,32.5875,2023,7.25,590,0,364,10,0.31,18,12,0,325,110,12,8,1,0.17,0.38,1.51
2927,Jammu & Kashmir,Udhampur,Kuperlah,75.1819,32.8503,2023,6.71,580,0,302,27,0.2,26,7,0,285,90,15,19,1,-0.03,0.51,1.4
2928,Jammu & Kashmir,Udhampur,Ritti,75.1633,32.8417,2023,6.98,650,0,339,20,0.23,18,3,0,265,90,10,32,2,0.72,2.1,1.01
2929,Jammu & Kashmir,Udhampur,Talpad,75.1988,32.8595,2023,6.5,340,0,210,12,0.22,13,3,0,175,52,11,14,1,-0.03,0.23,0.19
2930,Jammu & Kashmir,Udhampur,Sunal,75.2425,32.6794,2023,6.95,660,0,388,17,0.23,21,8,0,355,114,17,11,1,-0.03,0.17,2.36
2931,Jammu & Kashmir,Udhampur,Chhani Mansar,75.1644,32.6972,2023,7.07,660,0,425,10,0.26,13,3,0,340,116,12,21,1,-0.03,4.41,1.79
2932,Jammu & Kashmir,Udhampur,Manwall,75.15,32.7556,2023,6.67,800,0,419,42,0.25,28,14,0,410,144,12,21,2,-0.03,0.29,2.08
2933,Jammu & Kashmir,Udhampur,Salabra,75.175,32.7167,2023,6.85,580,0,376,7,0.21,15,5,0,305,98,15,13,1,-0.03,0.15,2.63
2934,Jammu & Kashmir,Udhampur,Dalsar,75.3125,32.8192,2023,6.96,770,0,505,15,0.34,18,3,0,330,104,17,65,2,0.14,0.6,2.1
2935,Jammu & Kashmir,Udhampur,Dehari,75.2728,32.7814,2023,6.96,790,0,394,50,0.26,47,13,0,335,104,18,60,2,-0.01,0.26,3.03
2936,Jammu & Kashmir,Udhampur,Jallow,75.2317,32.7958,2023,7.14,670,0,407,25,0.22,29,3,0,360,122,13,20,7,0,1.6,2.41
2937,Jammu & Kashmir,Udhampur,Ramnagar,75.31,32.8064,2023,6.37,420,0,234,20,0.13,16,5,0.22,205,66,10,17,3,-0.02,0.34,0.22
2938,Jammu & Kashmir,Udhampur,Dhanu Kannal,75.0072,32.9628,2023,6.91,630,0,429,5,0.16,9,3,0,360,118,16,9,1,-0.03,0.3,0.78
2939,Jammu & Kashmir,Udhampur,Badola,75.0347,32.9444,2023,7.05,610,0,313,25,0.15,20,36,0,320,116,7,10,2,-0.01,0.76,1.73
2940,Jammu & Kashmir,Udhampur,Battal Ballian,75.1256,32.8797,2023,6.77,740,0,233,55,0.27,79,42,0,300,88,19,43,2,-0.03,0.34,1.21
2941,Jammu & Kashmir,Udhampur,Birmah,75.1089,32.915,2023,6.8,560,0,325,17,0.18,19,3,0,285,102,7,16,3,-0.03,1.72,0.41
2942,Jammu & Kashmir,Udhampur,Eastern Mand,75.0239,32.8967,2023,6.73,650,0,374,22,0.17,22,3,0,325,102,17,20,3,-0.03,0.37,0.86
2943,Jammu & Kashmir,Udhampur,Garhi (Udh),75.0825,32.905,2023,6.97,860,0,454,37,0.27,41,24,0,410,128,22,30,2,-0.03,0.17,1.03
2944,Jammu & Kashmir,Udhampur,Jhakkar,75.1302,32.9265,2023,6.5,310,0,184,7,0.24,12,3,0,155,52,6,7,1,-0.02,0.2,0.06
2945,Jammu & Kashmir,Udhampur,Kotli Pain,75.0914,32.9089,2023,6.75,510,0,313,10,0.3,23,5,0,275,88,13,9,1,-0.03,0.13,1.98
2946,Jammu & Kashmir,Udhampur,Nagrota Panjgrain,75.2708,32.8358,2023,6.46,380,0,234,10,0.26,12,6,0,195,54,15,15,2,-0.03,0.1,0.12
2947,Jammu & Kashmir,Udhampur,Phangyal,75.1353,32.8956,2023,6.09,380,0,129,32,0.16,18,15,0,155,40,13,13,1,0.09,0.14,0.04
2948,Jammu & Kashmir,Udhampur,Rakh Badali,75.1089,32.9153,2023,6.66,570,0,221,35,0.18,24,44,0,265,82,15,16,1,-0.02,0.16,0.34
2949,Jammu & Kashmir,Udhampur,Seen Thakaran,75.0383,32.9131,2023,6.86,670,0,392,17,0.22,25,10,0,335,116,11,19,1,-0.03,0.14,1.23
7565,Uttar Pradesh,Agra,Block Office,78.5893,26.8697,2023,8.16,1705,0,586,156,0.76,162,12,0.57,350,44,58,261,11,0,0,5
7582,Uttar Pradesh,Aligarh,Block H.Q,78.2712,27.805,2023,8.36,1215,18,366,85,0.4,86,71,0,280,36,46,149,18,0.23,0,22
7583,Uttar Pradesh,Aligarh,Dist. H.Q,78.073,27.8976,2023,8.19,1625,0,573,177,0.4,121,64,0,450,36,86,184,12,0,0,10
7584,Uttar Pradesh,Aligarh,"Arya Nagar, Nagla Masani",78.0548,27.8838,2023,8.54,1245,18,378,170,1.4,18,14,0,180,24,29,205,5,0,0,17.38
7585,Uttar Pradesh,Aligarh,"Asadpur Kayam,Kyampur",78.1144,27.8861,2023,8.21,654,0,378,21,0.8,17,0,0,240,36,36,57,6,0.12,0,21.53
7586,Uttar Pradesh,Aligarh,"Bada Chowk, Sarai Rehman",78.07,27.8938,2023,8.13,1380,0,500,113,0.59,80,57,0,370,28,73,150,11,0.47,0,40.52
7587,Uttar Pradesh,Aligarh,Beema Nagar,78.0466,27.9059,2023,8.05,1244,0,573,92,0.45,48,17,0,400,36,75,124,10,0.08,0,73.11
7588,Uttar Pradesh,Aligarh,Dohra Maffi,78.0898,27.9283,2023,8.31,720,12,366,21,0.61,29,0,0,220,28,36,78,8,0,0,33.02
7589,Uttar Pradesh,Aligarh,Firdaus Nagar,78.0671,27.9283,2023,7.92,798,0,403,35,0.62,22,15,0,210,36,29,78,38,0.08,0,15.98
7590,Uttar Pradesh,Aligarh,"Gyan Sarovar, Ramesh Vihar Colony",78.0894,27.8911,2023,8.07,1080,0,427,85,0.29,77,0,0,320,40,53,110,8,0,0,20.51
7591,Uttar Pradesh,Aligarh,Kailash Nagar,78.0972,27.8711,2023,8.44,720,12,403,21,0.61,28,0,0,200,36,27,98,6,0.09,0,21.01
7592,Uttar Pradesh,Aligarh,Kela Nagar Market,78.0904,27.9039,2023,8.38,1328,18,525,63,0.46,73,51,0,360,12,80,140,12,0.1,0,34.46
7593,Uttar Pradesh,Aligarh,"Mahendra Nagar, Aawas Vikas Colony",78.0731,27.8679,2023,7.92,2043,0,427,233,0.31,289,51,0,580,84,90,215,15,0.07,0,21.44
7594,Uttar Pradesh,Aligarh,Roravar,78.0461,27.8725,2023,8.63,994,42,500,14,1.9,17,0,0,50,8,7,222,2,0,3.04,24.35
7595,Uttar Pradesh,Aligarh,"Shankar Vihar Colony, Quarsi",78.1155,27.904,2023,8.15,650,0,342,28,0.43,22,6,0,220,40,29,63,5,0.41,0,6.93
7596,Uttar Pradesh,Aligarh,Block H.Q,78.2811,28.0442,2023,8.21,1332,0,488,170,0.4,39,17,0,480,24,101,88,10,0,0,0
7597,Uttar Pradesh,Aligarh,Block H.Q,78.3997,27.9789,2023,8.09,1766,0,488,191,0.22,137,35,0,490,52,86,185,4,0,0,52
7598,Uttar Pradesh,Aligarh,Block Office Premises,77.8581,28.0805,2023,8.14,917,0,439,35,0.52,27,7,0,250,44,34,75,6,0.13,0,12
7599,Uttar Pradesh,Aligarh,Alinagar,78.1071,27.8538,2023,8.43,1217,36,415,28,0.39,80,24,0,130,16,22,200,5,0.22,0,11.87
7600,Uttar Pradesh,Aligarh,Block H.Q,78.1138,27.8743,2023,8.45,904,18,317,14,0.92,21,0,0,200,24,34,64,5,0.37,0,14
7601,Uttar Pradesh,Aligarh,Shahwazpur,78.1504,27.7782,2023,8.06,1138,0,610,28,0.76,36,16,0,180,32,24,195,6,0.13,0,43.03
7602,Uttar Pradesh,Aligarh,Block H.Q,78.3912,27.9254,2023,8.35,1147,30,683,28,0.87,18,8,0,220,20,41,211,12,0.11,0,14
7603,Uttar Pradesh,Aligarh,Sunhara,78.2855,27.8994,2023,8.04,887,0,281,57,0.19,86,40,0,280,44,41,70,21,0,0,7.75
7604,Uttar Pradesh,Aligarh,Block H.Q,77.8796,27.8367,2023,8.18,3662,0,622,603,0.83,491,16,0,530,56,94,609,13,0.13,0,62
7605,Uttar Pradesh,Aligarh,Dayapur,77.869,27.648,2023,8.06,4094,0,195,581,0.67,920,9,0,870,116,141,520,9,0.54,0,12.83
7606,Uttar Pradesh,Aligarh,Kalua,77.8702,27.7678,2023,8.37,1240,18,610,35,1.8,42,32,0,150,28,19,240,3,0,1.65,23.72
7607,Uttar Pradesh,Aligarh,Block H.Q,77.9394,27.7062,2023,8.1,1200,0,427,177,0.7,55,37,0,300,56,38,171,3,0.18,0,18
7608,Uttar Pradesh,Aligarh,Makhdampur,78.0096,27.7723,2023,8.37,1360,12,476,92,1,76,26,0,210,20,39,205,6,0,0,37.35
7609,Uttar Pradesh,Aligarh,Block H.Q,78.1162,28.0333,2023,8.37,745,36,305,21,0.66,40,0,0,240,28,41,70,6,0.21,1,28
7610,Uttar Pradesh,Aligarh,Block H.Q,77.8364,27.9435,2023,8.31,2982,24,659,390,2.3,244,93,0,330,40,55,561,15,0.26,0,146
7611,Uttar Pradesh,Aligarh,Block H.Q,78.0207,27.8933,2023,7.81,1104,0,561,50,0.49,38,13,0,260,20,50,126,10,0.06,0,29
7612,Uttar Pradesh,Aligarh,Nama,77.9487,27.6177,2023,8.03,893,0,293,106,0.2,29,0,0,250,48,31,89,5,0.27,0,10
7613,Uttar Pradesh,Aligarh,Rudyat Urf Tarapur,77.8917,27.8419,2023,8.34,1192,48,512,35,3.95,60,19,0.66,130,24,17,234,3,0,13,35
7614,Uttar Pradesh,Aligarh,Block H.Q,77.5792,28.0428,2023,8.07,977,0,403,64,1.9,110,8,0,220,28,36,132,4,0.2,0,30
7615,Uttar Pradesh,Aligarh,Langotgarhi,77.7138,28.0197,2023,8.6,1034,36,476,14,1.14,70,6,0,100,16,14,208,4,0.18,0,22.88
7616,Uttar Pradesh,Allahabad/ Prayagraj,"Bdo, Office",82.2602,25.0992,2023,7.73,1071,0,342,121,0.19,56,55,0,420,88,48,60,1,0.47,0,4
7617,Uttar Pradesh,Allahabad/ Prayagraj,"Bdo, Office",82.1017,25.1439,2023,7.61,927,0,244,135,0.35,48,45,0,250,76,14,101,0,13.96,0,7
7618,Uttar Pradesh,Allahabad/ Prayagraj,"Bdo, Office",82.081,25.546,2023,7.87,877,0,403,64,0.87,33,5,0,260,40,38,88,4,0,0,41
7619,Uttar Pradesh,Allahabad/ Prayagraj,"Bdo, Office",82.1602,25.5215,2023,8.09,1311,0,647,43,0.54,106,17,0,480,112,48,108,5,0.07,0,31
7620,Uttar Pradesh,Allahabad/ Prayagraj,"Bdo, Office",82.115,25.3719,2023,8.11,758,0,439,28,0.95,11,0,0,200,28,31,100,3,0.97,1,12
7621,Uttar Pradesh,Ambedkar Nagar,Located Close To Nhs,82.544,26.4361,2023,7.87,868,0,464,28,0.38,13,0,0,320,84,26,51,3,0.71,0,5
7622,Uttar Pradesh,Ambedkar Nagar,Located On The Main Chaurasia On,82.7651,26.455,2023,7.74,576,0,268,7,0.48,48,6,0,220,40,29,30,2,0.08,1,0
7623,Uttar Pradesh,Ambedkar Nagar,"Parsaye, Ekdalla Dihawar",82.7231,26.5228,2023,7.62,701,0,329,36,0.36,22,0,0,320,52,46,11,2,0.54,0,5.12
7624,Uttar Pradesh,Ambedkar Nagar,Shadipur,82.8579,26.5191,2023,7.74,576,0,268,7,0.48,48,6,0,220,40,29,30,2,0.44,0,6.33
7625,Uttar Pradesh,Ambedkar Nagar,Located Close To Nhs,82.3065,26.4655,2023,8.16,778,0,427,21,0.55,6,0,0,290,56,36,43,4,1.66,1,0
7626,Uttar Pradesh,Ambedkar Nagar,Located Near Hanuman Garhi Temple,82.8273,26.238,2023,7.86,735,0,390,14,0.55,14,10,0,295,48,42,30,3,0.23,0,10
7627,Uttar Pradesh,Ambedkar Nagar,Located Infront Of Kashi Gramin Bank,83.023,26.3529,2023,8.19,631,0,366,7,0.59,0,0,0,270,60,29,19,3,0.59,0,4
7628,Uttar Pradesh,Ambedkar Nagar,Dhaurua (Pendiya),82.5839,26.2669,2023,8.07,764,0,433,7,0.65,8,5,0,250,40,36,58,2,0.27,0,9.81
7629,Uttar Pradesh,Ambedkar Nagar,Located Close To Nhs,82.7337,26.31,2023,8.07,764,0,433,7,0.65,8,5,0,250,40,36,58,2,0.12,0,5
7630,Uttar Pradesh,Ambedkar Nagar,Near The Ramdev Janta Inter Collg.,82.4493,26.4881,2023,8.02,596,0,329,14,0.3,7,0,0,260,56,29,15,4,0.63,1,3
7631,Uttar Pradesh,Ambedkar Nagar,Located Near Jaibayrang Intermediate,82.9041,26.4464,2023,8.24,456,0,232,7,0.7,21,0,0,190,44,19,15,2,0.49,2,3
7632,Uttar Pradesh,Ambedkar Nagar,Located Near Sbi On Tanda Baskhari,82.64,26.5383,2023,7.83,665,0,354,14,0.19,22,0,0,290,64,31,18,3,2.72,0,0
7633,Uttar Pradesh,Amethi,Pwd Dak Bangla,81.8086,26.1562,2023,7.57,3083,0,964,284,0.34,273,72,0,730,52,144,362,9,0,0,51.52
7634,Uttar Pradesh,Amethi,Kesariya Salimpur,81.4426,26.2808,2023,7.64,1966,0,354,320,0.41,197,23,0,570,88,84,171,15,0.56,0,20.56
7635,Uttar Pradesh,Amethi,Block Hq,81.8752,26.2107,2023,8.05,636,0,317,7,0.54,35,0,0,230,40,31,37,3,1.86,0,11.8
7636,Uttar Pradesh,Amethi,"Pwd Entrance, Near Bike Stand",81.6871,26.2068,2023,7.86,1075,0,415,128,0.31,12,0,0,400,48,67,60,6,7.89,0,0
7637,Uttar Pradesh,Amethi,Block Hq,81.6288,26.456,2023,8.01,1647,0,598,135,0.49,111,18,0,400,56,62,187,5,0.68,0,15.72
7638,Uttar Pradesh,Amethi,Block Hq,81.8005,26.3778,2023,7.59,1517,0,525,156,0.58,52,51,0,480,48,86,121,7,0.69,0,42.98
7639,Uttar Pradesh,Amethi,"Musafirkhana, Rasoolabad",81.8727,26.3988,2023,8.08,1225,0,488,50,0.58,128,5,0,350,56,50,115,4,0.29,0,16.03
7640,Uttar Pradesh,Amethi,Block Hq,81.838,26.0775,2023,8.08,946,0,366,36,0.89,108,0,0,320,40,53,64,8,1.69,0,8.72
7641,Uttar Pradesh,Amethi,"Mahona West, Kuraishi Mohalla",81.5873,26.5335,2023,7.85,674,0,342,21,0.71,7,21,0,260,36,41,33,5,2.87,0,4.15
7642,Uttar Pradesh,Amethi,Block Hq,81.4708,26.3929,2023,7.93,967,0,439,50,0.86,46,0,0,285,36,47,87,5,0.41,0,28
7643,Uttar Pradesh,Amethi,Block Office,81.4708,26.3929,2023,7.93,967,0,439,50,0.86,46,0,0,285,36,47,87,5,0.41,0,28
7644,Uttar Pradesh,Amroha,Block Office,78.4859,28.9042,2023,7.82,744,0,342,50,0.39,29,13,0,300,40,48,39,6,0,0,5
7645,Uttar Pradesh,Amroha,Shaikhpura Imma,78.4171,28.9267,2023,7.62,746,0,403,28,0.2,24,11,0,350,108,19,19,7,0.1,1.59,7.57
7646,Uttar Pradesh,Amroha,Papsari Khadar,78.1176,29.304,2023,7.71,320,0,183,14,0.35,0,0,0,125,30,12,21,3,0.35,1.24,4.12
7647,Uttar Pradesh,Amroha,Sultanpur,78.1541,28.9318,2023,7.7,404,0,238,14,0.37,6,0,0,170,56,7,21,4,0.55,4.86,7.31
7648,Uttar Pradesh,Amroha,Sikandarpur Shebu,78.4113,28.5474,2023,7.6,323,0,159,14,0.38,0,18,0,145,52,4,9,3,0.14,2.44,0
7649,Uttar Pradesh,Amroha,Block Office,78.2819,28.7318,2023,7.73,1607,0,305,99,0.22,367,40,0,650,108,91,69,5,0.38,0,3
7650,Uttar Pradesh,Amroha,Sabadarpur Sarki,78.4128,28.6751,2023,7.84,673,0,305,14,0.35,74,0,0,290,96,12,23,4,2.76,0,7.28
7651,Uttar Pradesh,Amroha,Block Office,78.4732,28.8356,2023,7.76,1427,0,488,99,0.4,92,83,0,475,40,90,89,28,0.1,1.06,63.92
7652,Uttar Pradesh,Amroha,Patai,78.5563,28.8062,2023,7.94,630,0,366,14,0.5,22,0,0,280,80,19,26,5,7.17,0,6.52
7653,Uttar Pradesh,Auraiya,Hand Pump Of Block Office In The,79.4027,26.6995,2023,7.72,798,0,390,43,0.78,35,10,0,340,48,54,45,4,0.15,1,22
7654,Uttar Pradesh,Auraiya,Hand Pump Of Block Office Infront Of,79.4284,26.8885,2023,7.82,1233,0,390,135,0.59,127,5,0,490,92,63,82,5,0,0,20
7655,Uttar Pradesh,Auraiya,Kaba,79.4615,26.8593,2023,7.86,610,0,354,7,0.49,22,0,0,160,36,17,80,2,0,0,3.14
7656,Uttar Pradesh,Auraiya,Akbarpur,79.3263,26.5078,2023,8.13,975,0,573,21,4.1,23,0,0,120,16,19,192,3,0,1.08,31.27
7657,Uttar Pradesh,Auraiya,Hand Pump Of Block Office In,79.3188,26.5658,2023,7.79,888,0,500,35,1.1,22,0,0,280,44,41,96,3,0,0,15
7658,Uttar Pradesh,Auraiya,At The Enterance To City From,79.5039,26.4661,2023,7.39,1175,0,403,113,0.54,45,85,0,400,56,63,83,3,0,0,16
7659,Uttar Pradesh,Auraiya,Block Office,79.4978,26.6116,2023,7.81,878,0,488,28,0.61,21,9,0,330,36,58,70,3,0,0,20
7660,Uttar Pradesh,Auraiya,Bidhuna Block Office,79.5024,26.8025,2023,7.92,1188,0,647,43,0.89,30,9,0,400,24,83,112,8,0.37,0,19
7661,Uttar Pradesh,Auraiya,Kashari,79.6081,26.8295,2023,8.06,822,0,464,21,1.2,18,0,0,270,36,44,80,5,0.17,0,28.46
7662,Uttar Pradesh,Auraiya,Ruruganj,79.4543,26.7693,2023,7.88,732,0,427,28,0.74,12,0,0,280,36,46,53,6,0.33,0,16.06
7663,Uttar Pradesh,Auraiya,Asu,79.6381,26.6833,2023,7.98,1262,0,512,35,0.76,123,0,0,360,36,66,118,8,0.3,0,24.03
7664,Uttar Pradesh,Auraiya,Bholapur,79.6892,26.7367,2023,8.1,994,0,561,21,0.77,31,0,0,300,28,56,112,6,0.09,1.14,47.86
7665,Uttar Pradesh,Auraiya,Gapariyapur,79.5909,26.7211,2023,7.87,965,0,512,28,0.48,51,0,0,330,36,58,91,6,0,0,14.1
7666,Uttar Pradesh,Auraiya,Hand Pump Of Block Office,79.6002,26.7585,2023,7.79,958,0,512,35,0.95,23,0,0,270,36,44,111,5,0,0,44
7667,Uttar Pradesh,Auraiya,Piluaa,79.6023,26.6556,2023,7.7,625,0,378,14,0.68,10,0,0,220,32,34,50,3,0.31,0,7.51
7668,Uttar Pradesh,Auraiya,Purwaudai,79.5615,26.7669,2023,7.8,980,0,476,50,1,30,15,0,300,36,51,98,5,0.23,0,23.46
7669,Uttar Pradesh,Auraiya,Ramgarh,79.5173,26.7024,2023,7.87,836,0,464,28,0.94,33,7,0,230,36,34,104,3,0.21,0,10.17
7670,Uttar Pradesh,Auraiya,Yakubpur,79.7149,26.7641,2023,7.8,1293,0,500,149,0.81,43,8,0,340,36,61,155,18,0.28,1.42,34.92
7671,Uttar Pradesh,Ayodhya,Shukl Ka Purwa,82.1583,26.529,2023,7.74,635,0,366,7,0.65,0,0,0,240,36,36,33,4,3.26,7.97,6.66
7672,Uttar Pradesh,Ayodhya,Dilasiganj,82.392,26.6498,2023,7.79,619,0,354,7,0.55,6,0,0,270,56,31,16,3,0.69,0,4.25
7673,Uttar Pradesh,Ayodhya,Vijay Pathak Ka Purwa,82.0201,26.6556,2023,7.75,627,0,329,7,0.55,14,16,0,230,40,31,36,3,0.71,0,6.08
7674,Uttar Pradesh,Ayodhya,"Jakhwa, Amaniganj",81.7392,26.6469,2023,7.59,564,0,293,7,0.39,24,8,0,200,44,22,34,4,0.38,0,5.38
7675,Uttar Pradesh,Ayodhya,"Ramnagar, Dhaurhara",81.8741,26.7936,2023,7.78,678,0,305,14,0.37,46,17,0,310,72,31,10,2,0,3.32,0
7676,Uttar Pradesh,Azamgarh,Block Office,82.9112,26.1815,2023,7.78,718,0,403,14,0.48,0,0,0,300,44,46,24,3,0.76,0,7
7677,Uttar Pradesh,Azamgarh,Sahbadiya Sultanpur,83.4102,25.2508,2023,7.69,464,0,268,7,0.24,0,0,0,220,56,19,4,3,1.39,22.43,0
7678,Uttar Pradesh,Azamgarh,Block Office,83.2674,25.9588,2023,7.83,917,0,512,21,0.38,0,6,0,380,48,62,35,3,0.14,0,23
7679,Uttar Pradesh,Azamgarh,Block Office,83.1201,26.2511,2023,7.62,435,0,244,7,0,0,0,0,140,44,7,32,2,0.5,27,0
7680,Uttar Pradesh,Azamgarh,Block Office,83.0281,25.9621,2023,7.7,2256,0,708,199,0.39,225,0,0,640,80,106,225,3,11.57,0,10
7681,Uttar Pradesh,Azamgarh,Block Office,83.0859,25.7832,2023,8.31,1318,30,610,14,8.2,35,0,0,80,12,12,265,1,0,6,74
7682,Uttar Pradesh,Azamgarh,Basai Bande Daspur,83.0299,26.1283,2023,7.65,567,0,293,7,0.86,8,14,0,230,52,24,23,3,0.22,0,6.44
7683,Uttar Pradesh,Azamgarh,Block Office,82.9377,25.8784,2023,7.84,720,0,403,7,0.6,9,0,0,280,48,38,32,3,0.22,0,104
7684,Uttar Pradesh,Baghpat,In Block Office,77.2175,28.9533,2023,7.46,1964,0,305,319,0.78,123,192,0,641,154,62,162,8,0.62,0,10
7685,Uttar Pradesh,Baghpat,Near Jai Pal Singh House,77.2354,29.0327,2023,7.71,875,0,476,28,0.62,41,10,0,250,46,33,104,7,0.64,0,11.19
7686,Uttar Pradesh,Baghpat,Garhi Kangran,77.422,29.1974,2023,8.18,489,0,220,7,0.1,52,0,0,20,8,0,107,0,0,28.33,3.93
7687,Uttar Pradesh,Baghpat,In Block Office,77.2569,29.0975,2023,7.97,760,0,415,14,1,41,20,0,265,43,38,65,6,0.87,0,17
7688,Uttar Pradesh,Baghpat,Pusar Village,77.3868,29.1652,2023,7.68,1081,0,525,85,0.48,19,0,0,390,52,63,90,7,0.18,0,19.4
7689,Uttar Pradesh,Baghpat,In Block Office,77.1792,29.2078,2023,8.02,1206,0,549,85,1.3,50,17,0,170,32,22,224,5,0,0,0
7690,Uttar Pradesh,Baghpat,Entrance Of Dharimpur,77.376,28.776,2023,8.01,1184,0,439,128,0.72,34,30,0,260,36,41,165,5,0.3,0,3.67
7691,Uttar Pradesh,Baghpat,In Block Office,77.2733,28.8656,2023,7.95,713,0,366,28,0.76,47,0,0,280,54,36,43,5,0.31,0,17
7692,Uttar Pradesh,Baghpat,In Block Office,77.3711,28.9378,2023,8.02,1459,0,696,50,0.75,132,12,0,330,50,50,215,9,0,0,15
7693,Uttar Pradesh,Bahraich,New Basti Chairaha,81.4624,27.9608,2023,7.65,684,0,403,14,0.51,6,0,0,290,60,34,34,4,0.85,14.26,0
7694,Uttar Pradesh,Bahraich,Shiyapura,81.3103,27.9811,2023,7.21,561,0,342,7,0.28,5,0,0,190,64,7,48,5,0.95,8.64,0
7695,Uttar Pradesh,Bahraich,Loharipurwa,81.8829,27.4115,2023,8.02,285,0,153,14,0,5,0,0,120,40,5,11,2,0.32,1.48,0
7696,Uttar Pradesh,Bahraich,Block Office,81.5264,27.4194,2023,7.62,993,0,390,99,0.21,30,28,1.25,290,96,12,100,20,0,12,0
7697,Uttar Pradesh,Bahraich,Kodahi,81.4625,27.4301,2023,7.69,971,0,500,43,0.27,31,0,0,380,80,43,60,5,4.73,22.22,0
7698,Uttar Pradesh,Bahraich,Block Office,81.6658,27.3528,2023,7.33,494,0,293,7,0.28,5,0,0,210,54,18,18,4,4.72,103,0
7699,Uttar Pradesh,Bahraich,"Nasirganj, Barauli Ghat",81.5139,27.1601,2023,7.67,580,0,305,28,0.27,24,0,0.68,290,88,17,7,5,1.61,35.04,0
7700,Uttar Pradesh,Bahraich,Jodhiya Nim,81.5159,27.2689,2023,7.84,400,0,244,7,0.33,7,0,0,165,52,8,24,3,0.45,0,0
7701,Uttar Pradesh,Bahraich,Block Office,81.3875,27.6397,2023,7.49,882,0,427,78,0,24,0,0,285,50,38,63,50,4.51,31,0
7702,Uttar Pradesh,Bahraich,Godmar Khurd,81.4065,27.5442,2023,7.69,624,0,366,14,0.29,19,0,0,250,84,10,36,5,3.47,23.88,0
7703,Uttar Pradesh,Bahraich,Mahua Chauraha,81.3343,27.6827,2023,7.59,653,0,354,28,0,24,5,0,250,68,19,45,10,1.58,12.75,3.75
7704,Uttar Pradesh,Bahraich,Block Office,81.3836,28.0256,2023,7.74,555,0,342,14,0,0,0,0,260,64,24,15,2,0.41,16,0
7705,Uttar Pradesh,Bahraich,Mote Baba,81.1703,28.2961,2023,7.37,670,0,403,14,0,5,0,0,320,52,46,15,5,1.62,1.06,0
7706,Uttar Pradesh,Bahraich,Saryou Link Canal,81.3309,28.0733,2023,7.88,398,0,220,14,0.47,19,0,0,200,52,17,8,2,0.24,2.05,0
7707,Uttar Pradesh,Bahraich,Darjinpurwa,81.6098,27.8193,2023,7.89,474,0,268,14,0.53,5,0,0,220,56,19,14,3,0.69,3.2,0
7708,Uttar Pradesh,Bahraich,Baundi,81.3715,27.8218,2023,7.52,968,0,476,50,0.22,50,0,0,350,68,43,49,40,2.27,39.82,0
7709,Uttar Pradesh,Bahraich,Block Office,81.3933,27.8108,2023,7.51,649,0,390,7,0,5,0,0,300,74,28,18,6,0,1,5
7710,Uttar Pradesh,Bahraich,Block Office,81.4958,27.5314,2023,7.22,785,0,427,35,0,5,0,0,290,86,18,56,8,5.37,68,0
7711,Uttar Pradesh,Ballia,Block Office,84.4734,25.7769,2023,7.48,776,0,378,28,0.11,23,0,0,270,56,31,48,3,5.08,7,2
7712,Uttar Pradesh,Ballia,Block Office,84.2163,25.8742,2023,7.51,2612,0,659,425,0.45,76,40,0,500,132,41,354,3,5.18,0,27
7713,Uttar Pradesh,Ballia,Block Office,84.2934,25.7363,2023,7.64,1316,0,537,99,0.42,64,0,0,390,80,46,104,33,8.99,15,2
7714,Uttar Pradesh,Ballia,Block Office,83.9643,25.825,2023,7.74,899,0,525,7,0.73,0,0,0,360,60,50,37,3,0.18,0,9
7715,Uttar Pradesh,Ballia,Block Office,84.2393,27.445,2023,7.69,1012,0,537,35,0.42,6,0,0,340,48,53,71,4,1.71,24,0
7716,Uttar Pradesh,Ballia,Pilui Fattepur,84.1444,25.9902,2023,7.54,764,0,403,14,0.35,17,0,0,290,56,36,36,7,5.97,0,3.77
7717,Uttar Pradesh,Ballia,Block Office,84.5165,25.7282,2023,7.78,715,0,415,7,0,0,0,0,260,64,24,43,3,1.72,52,5
7718,Uttar Pradesh,Ballia,Block Office,83.8627,25.8572,2023,7.9,849,0,500,7,0.35,0,0,0,310,40,50,50,4,3.39,0,4
7719,Uttar Pradesh,Ballia,Block Office,84.3718,25.8418,2023,8.06,599,0,329,14,0.34,0,0,0,0,32,36,29,2,1.2,93,0
7720,Uttar Pradesh,Ballia,Block Office,84.004,25.6293,2023,7.63,676,0,390,7,0.2,0,0,0,0,48,29,43,3,4.16,85,0
7721,Uttar Pradesh,Ballia,Chitbaragoan,83.9812,25.7344,2023,7.8,757,0,403,21,0.56,9,0,0,280,40,43,42,2,1.55,0,6.85
7722,Uttar Pradesh,Balrampur,Block Office,82.1711,27.4286,2023,7.53,782,0,403,50,0.37,26,0,0,250,78,13,80,1,0.63,0,0
7723,Uttar Pradesh,Balrampur,Block Office,82.4208,27.2636,2023,7.42,700,0,378,35,0.42,10,0,0,280,66,28,45,5,0.77,25,0
7724,Uttar Pradesh,Balrampur,Chandarpur,82.6553,27.662,2023,7.31,1264,0,476,78,0.21,53,53,0,340,76,36,83,79,0,0,3.53
7725,Uttar Pradesh,Balrampur,Kushahwa,82.519,27.6299,2023,7.63,944,0,427,78,0.64,32,14,0,440,64,67,24,1,0,0,3.49
7726,Uttar Pradesh,Balrampur,Sonepur More,82.4877,27.5298,2023,8.11,961,0,610,14,0.74,5,0,0,150,32,17,175,1,2.1,117.4,0
7727,Uttar Pradesh,Balrampur,Tharunia,82.4491,27.392,2023,7.74,439,0,207,21,0.33,17,0,0,200,76,2,8,1,0,0,8.89
7728,Uttar Pradesh,Balrampur,Block Office,82.5475,27.5294,2023,8.03,1343,0,866,14,1.2,5,0,0,100,18,13,290,0,0.33,0,7
7729,Uttar Pradesh,Balrampur,Block Office,82.1744,27.6361,2023,7.81,813,0,500,14,0.79,9,0,0,170,40,17,128,2,1.49,0,11
7730,Uttar Pradesh,Balrampur,Haraiya Bazar,82.2794,27.6559,2023,7.74,2686,0,1098,291,0.28,160,14,0,170,60,5,505,147,0.64,7.23,8.78
7731,Uttar Pradesh,Balrampur,Laliya Village,82.1376,27.5713,2023,7.65,713,0,403,14,0.42,5,0,0,170,60,5,87,1,1.37,18.84,0
7732,Uttar Pradesh,Balrampur,Block Office,82.6303,27.5272,2023,7.96,865,0,537,7,0.55,0,0,0,270,48,36,90,1,2.45,5,0
7733,Uttar Pradesh,Balrampur,Barhni Mai Mandir,82.7351,27.4186,2023,7.63,644,0,378,14,0,7,5,0,310,52,43,19,1,0,0,0
7734,Uttar Pradesh,Balrampur,Majigwa Khurd,82.7258,27.5451,2023,8.12,853,0,537,7,0.93,7,0,0,140,36,12,146,0,0,0,6.71
7735,Uttar Pradesh,Balrampur,Shivpur More,82.4511,27.4511,2023,7.84,687,0,427,7,0.24,5,0,0.62,280,76,22,35,1,2.37,106.92,0
7736,Uttar Pradesh,Balrampur,Rehra Bazar,82.2786,27.1817,2023,7.31,1120,0,390,121,0,46,65,0,420,96,43,84,3,0,1,0
7737,Uttar Pradesh,Balrampur,Nauradih,82.2964,27.2847,2023,8.08,584,0,366,7,0.35,5,0,0,210,68,10,45,4,0.92,1.68,0
7738,Uttar Pradesh,Balrampur,Block Office,82.3025,27.3744,2023,7.93,564,0,305,7,0.34,0,0,0,200,60,12,24,3,0.85,0,9
7739,Uttar Pradesh,Balrampur,Block Office,82.2956,27.5222,2023,7.39,490,0,281,14,0.57,9,0,0,210,64,12,24,1,0.09,0,0
7740,Uttar Pradesh,Balrampur,Block Office,82.4075,27.3214,2023,7.91,678,0,366,35,0.36,15,11,0,310,72,31,25,6,0.17,0,0
7741,Uttar Pradesh,Balrampur,4.2 Km From Rehar Bazar Towards,82.2606,27.1587,2023,7.81,418,0,244,14,0.28,0,0,0,190,58,11,14,3,0.3,0,6.18
7742,Uttar Pradesh,Balrampur,Bakauli,82.5645,27.533,2023,7.11,1191,0,573,71,0.43,46,0,0,510,80,74,55,4,0,0,10.89
7743,Uttar Pradesh,Balrampur,Dubra Autarpur,82.4373,27.2611,2023,7.66,847,0,403,71,0.63,24,0,0,360,92,31,46,3,5.25,3.54,0
7744,Uttar Pradesh,Balrampur,"Durgapur Village,Back Side Of",82.5057,27.5813,2023,7.51,730,0,366,35,0.3,7,5,0,315,80,28,17,1,0,0,0
7745,Uttar Pradesh,Balrampur,"Ganga Didba, 5 Km From Balrampur",82.2155,27.4341,2023,7.66,624,0,354,21,0.38,10,0,0,270,54,32,31,3,11.92,1.07,0
7746,Uttar Pradesh,Balrampur,"Infront Of Mishra Auto Sales, Near",82.1575,27.4093,2023,7.74,880,0,488,28,1,29,0,0,380,62,54,37,2,0,0,0
7747,Uttar Pradesh,Balrampur,"Near House Of Kaji Gausulwara, On",82.183,27.4094,2023,7.59,949,0,500,43,0,43,0,0,395,98,36,58,4,2.25,11.96,0
7748,Uttar Pradesh,Balrampur,"Near House Of Shri Ram Plash, 3.4",82.2608,27.2057,2023,7.74,588,0,342,14,0.54,5,0,0,270,74,20,16,3,0.59,4.68,0
7749,Uttar Pradesh,Balrampur,"Near Indian Oil Petrol Pump, And 5",82.1426,27.4598,2023,7.72,335,0,195,7,0.38,0,0,0,150,48,7,9,2,0.16,5.96,0
7750,Uttar Pradesh,Balrampur,Near Railway Station Gaisadi,82.5471,27.5276,2023,7.18,1743,0,476,184,0.29,200,32,0,500,184,10,190,2,0,0,27.49
7751,Uttar Pradesh,Balrampur,Patel Chauraha,82.2992,27.2145,2023,7.63,672,0,403,21,0.34,8,0,0,235,60,20,57,2,0,1.41,6.35
7752,Uttar Pradesh,Balrampur,"Raza Jot Village, Near Durga Mandir",82.407,27.2837,2023,7.82,481,0,305,7,0.37,5,0,0,220,64,14,17,3,0.88,6.23,0
7753,Uttar Pradesh,Balrampur,Salapur Village,82.4243,27.2313,2023,7.41,749,0,329,50,0.29,35,23,0,360,92,31,20,0,0.11,0,0
7754,Uttar Pradesh,Balrampur,"Sugauwa More, 4 Km From Rehar",83.3074,27.1722,2023,7.49,474,0,244,28,0.31,9,0,0,225,68,13,12,3,0,0,0
7755,Uttar Pradesh,Banda,Hand Pump Of Block Office,80.7094,25.5545,2023,7.84,730,0,390,21,0.41,13,0,0,190,32,26,79,1,1.12,0,3
7756,Uttar Pradesh,Banda,Kaji Tola,80.7243,25.6456,2023,7.79,888,0,500,14,0.77,8,6,0,270,48,36,78,2,0.17,0,6.74
7757,Uttar Pradesh,Banda,Murwal,80.5604,25.517,2023,7.67,777,0,415,21,0.38,10,8,0,280,52,36,49,2,0.15,0,4.04
7758,Uttar Pradesh,Banda,Chamraha,80.1737,25.3857,2023,7.99,986,0,561,14,0.78,0,6,0,270,40,41,101,2,0.08,0,17.49
7759,Uttar Pradesh,Banda,Jaurahi,80.4317,25.4811,2023,8.02,1012,0,512,36,0.61,23,0,0,250,48,31,113,2,0.21,0,4.16
7760,Uttar Pradesh,Banda,Kahriya,80.3749,25.5787,2023,8.18,845,0,476,14,0.52,0,10,0,330,40,55,41,1,0.32,0,5.24
7761,Uttar Pradesh,Banda,Kanwara,80.3226,25.5132,2023,8.07,882,0,439,28,0.44,24,21,0,250,64,22,86,0,0.2,0,0
7762,Uttar Pradesh,Banda,Hand Pump Of Block Office,79.8944,25.4811,2023,7.61,1795,0,586,142,0.69,131,79,0,440,48,77,204,1,1.3,0,6
7763,Uttar Pradesh,Banda,Hand Pump Of Block Office,80.7094,25.5545,2023,8.08,1149,0,659,7,0.7,22,0,0,260,44,36,142,2,0,0,8
7764,Uttar Pradesh,Banda,Oran,80.7385,25.3715,2023,8.02,999,0,439,78,0.47,21,8,0,340,92,26,71,3,0.25,0,3.66
7765,Uttar Pradesh,Banda,Narauli,80.4436,25.8604,2023,7.84,1555,0,769,71,0.64,34,9,0,300,36,50,214,4,0.17,0,28.87
7766,Uttar Pradesh,Banda,Sindhan Kalan,80.4421,25.7794,2023,7.69,500,0,268,7,0.48,9,11,0,200,60,12,22,1,0.08,0,3.52
7767,Uttar Pradesh,Banda,Itarra,80.9911,25.4906,2023,7.64,841,0,403,50,0.52,10,8,0,200,48,19,102,0,0.17,0,3.68
7768,Uttar Pradesh,Banda,Mau,80.8693,25.6152,2023,8.07,1284,0,622,50,0.49,15,7,0,350,32,65,115,0,0.09,0,17.75
7769,Uttar Pradesh,Banda,Kacchi Sadak,80.4345,25.2504,2023,7.82,870,0,451,21,0.22,31,0,0,330,116,10,46,1,0.32,0,0
7770,Uttar Pradesh,Banda,Hand Pump Of Block Office,80.7094,25.5545,2023,7.87,1371,0,580,121,0.73,21,12,0,500,56,86,81,1,0.19,0,9
7771,Uttar Pradesh,Banda,Manohar Purwa,80.6007,25.2644,2023,7.87,800,0,415,28,0.53,12,0,0,240,36,36,73,1,0.5,0,28.21
7772,Uttar Pradesh,Banda,Prashidhhapur,80.6143,25.1351,2023,7.62,1249,0,427,135,0.81,48,37,0,400,88,43,101,0,0.1,0,7.19
7773,Uttar Pradesh,Banda,Bhujrakh,80.5879,25.6442,2023,8.1,891,0,488,21,0.49,8,10,0,250,48,31,89,2,0.32,0,5.07
7774,Uttar Pradesh,Barabanki,Block Office,81.524,26.793,2023,7.78,633,0,317,14,0.35,15,0,0,240,64,19,21,4,1.67,4,0
7775,Uttar Pradesh,Barabanki,Block Office,81.1841,26.9304,2023,7.93,684,0,415,14,0.45,0,0,0,210,56,17,74,5,0.99,0,7
7776,Uttar Pradesh,Barabanki,Block Office,81.5569,26.8885,2023,7.91,646,0,348,14,0.63,9,0,0,255,44,35,35,3,0.45,0,6
7777,Uttar Pradesh,Barabanki,Block Office,81.1706,27.0357,2023,7.96,388,0,195,14,1.43,20,0,0,189,44,19,5,4,1.4,3,0
7778,Uttar Pradesh,Barabanki,Block Office,81.2158,27.1743,2023,8.04,550,0,268,21,0.34,19,0,0,180,64,5,36,7,0.82,1,0
7779,Uttar Pradesh,Barabanki,Block Office,81.3633,26.6046,2023,7.94,700,0,427,14,0.51,0,0,0,288,56,36,29,5,0.36,0,11
7780,Uttar Pradesh,Barabanki,Chaubisi,81.4294,26.5722,2023,7.87,551,0,348,11,0.14,0,0,0,240,72,14,24,5,0.21,0,6.55
7781,Uttar Pradesh,Barabanki,Bhanmau,81.2644,26.8014,2023,8.37,525,18,244,14,0.48,15,0,0,195,28,30,37,5,1.21,2.93,11.57
7782,Uttar Pradesh,Barabanki,Block Office,81.2285,26.8553,2023,7.92,652,0,342,21,0.69,12,0,0,270,48,36,22,6,2.74,2,6
7783,Uttar Pradesh,Barabanki,Block Office,81.3221,26.9809,2023,7.97,501,0,293,14,0.7,10,0,0,252,52,29,9,4,1.1,1,0
7784,Uttar Pradesh,Barabanki,Lakshvar Vajaha,81.2908,26.9178,2023,7.93,591,0,354,11,0.27,20,0,0,260,60,26,24,5,0.87,0,3.44
7785,Uttar Pradesh,Barabanki,Baba Ki Kutti,81.1007,27.1782,2023,8.06,389,0,195,11,0.99,21,0,0,170,48,12,7,3,0.65,11.85,0
7786,Uttar Pradesh,Barabanki,Block Office,81.0727,27.1214,2023,7.96,582,0,311,7,0.63,18,0,0,235,48,28,26,5,1.56,0,12
7787,Uttar Pradesh,Barabanki,Block Office,81.7103,26.8686,2023,7.92,423,0,250,7,0.63,0,0,0,180,44,17,12,3,0.41,0,0
7788,Uttar Pradesh,Barabanki,Block Office,81.4053,27.0852,2023,7.96,642,0,293,43,0.23,17,0,0,252,60,24,29,4,3.61,6,0
7789,Uttar Pradesh,Barabanki,Block Office,83.0945,27.3005,2023,7.81,780,0,366,43,0.19,29,0,0,324,60,42,39,4,0,1,5
7790,Uttar Pradesh,Barabanki,Block Office,81.4365,26.9576,2023,7.78,397,0,226,7,0.31,19,0,0,200,64,10,5,2,0.57,0,0
7791,Uttar Pradesh,Barabanki,Block Office,81.3344,27.1932,2023,7.59,564,0,299,28,0.37,17,0,0,216,68,11,30,5,3.27,2,0
7792,Uttar Pradesh,Barabanki,Purwa Amarsingh,81.3914,27.139,2023,8.02,561,0,342,14,0.11,5,0,0,230,64,17,29,5,3.38,3.6,0
7793,Uttar Pradesh,Barabanki,Block Office,81.3089,26.6419,2023,7.9,744,0,433,14,0.7,15,11,0,320,48,48,26,4,0.11,0,10
7794,Uttar Pradesh,Bareilly,Nawada,79.4935,28.1705,2023,8.39,467,6,201,7,0.14,28,0,0,210,44,24,7,3,0.33,7.06,0
7795,Uttar Pradesh,Bareilly,Garibpurwa,79.5549,28.8005,2023,8.22,430,0,201,11,0.35,20,0,0,160,28,22,23,1,0.25,0,3.85
7796,Uttar Pradesh,Bareilly,Samshapur,79.4314,28.5658,2023,7.9,514,0,275,14,0.13,0,0,0,220,48,24,15,3,1.23,0,0
7797,Uttar Pradesh,Bareilly,Block Hq,79.6414,28.2687,2023,7.99,510,0,281,7,0.22,14,0,0,230,60,19,10,3,1.3,9,0
7798,Uttar Pradesh,Bareilly,Sawarkhera,79.566,28.4383,2023,8.12,492,0,268,7,0.29,0,0,0,200,48,19,18,3,0.28,10.36,0
7799,Uttar Pradesh,Bareilly,Block Hq,79.5044,28.3375,2023,7.92,599,0,256,36,0.26,35,0,0,230,36,34,23,16,3.31,1,23
7800,Uttar Pradesh,Bareilly,Block Hq,79.5394,28.2007,2023,7.92,1534,0,329,178,0.16,164,38,0,490,84,67,104,7,0.89,0,68
7801,Uttar Pradesh,Bareilly,Mirzapur,79.2946,28.556,2023,7.85,796,0,342,43,0,45,0,0,210,52,19,73,7,0.98,10.64,0
7802,Uttar Pradesh,Bareilly,Block Hq,79.2735,28.3117,2023,8.34,775,6,354,36,0.23,34,0,0,150,28,19,107,2,0.39,2,5
7803,Uttar Pradesh,Bareilly,Block Hq,79.12,28.3695,2023,8.04,469,0,189,21,0.2,21,20,0,220,52,22,6,2,0,4,0
7804,Uttar Pradesh,Bareilly,Budhanpur Bujurg,79.0209,28.4254,2023,7.97,378,0,195,14,0,6,0,0,100,38,1,34,3,0.75,0,0
7805,Uttar Pradesh,Bareilly,Nurpur,79.1521,28.2994,2023,7.92,712,0,360,25,0.29,0,0,0,280,48,38,32,5,0.79,8.42,8.62
7806,Uttar Pradesh,Bareilly,Block Hq,79.3651,28.6541,2023,8.25,589,0,293,14,0.23,19,0,0,250,72,17,15,4,0.5,1,9
7807,Uttar Pradesh,Bareilly,Bunchi,79.2967,28.6935,2023,7.94,630,0,305,21,0.19,12,0,0,220,44,26,39,3,2.87,5.01,3.48
7808,Uttar Pradesh,Basti,Block Office,82.5736,26.9075,2023,7.81,440,0,244,14,0.45,5,0,0,205,50,19,10,2,0,2,0
7809,Uttar Pradesh,Basti,Bedipur Chauraha,82.4414,26.8864,2023,7.79,691,0,354,35,0,27,7,0,300,76,26,36,1,0,1.03,0
7810,Uttar Pradesh,Basti,Parasurampur,82.34,26.905,2023,7.69,589,0,329,21,0.47,5,0,0,245,72,16,29,2,1.39,11,0
7811,Uttar Pradesh,Basti,Bardhar,82.7328,27.0328,2023,7.89,484,0,281,14,0,0,5,0,220,64,14,14,3,0.42,2.86,0
7812,Uttar Pradesh,Basti,Block Office,82.7139,26.93,2023,7.71,796,0,500,14,0.29,5,0,0,270,52,34,74,4,1.5,0,4
7813,Uttar Pradesh,Basti,Jiwdhara Village,82.8662,26.7742,2023,7.99,490,0,256,21,0.35,7,17,0,220,48,24,19,3,0.09,0,7
7814,Uttar Pradesh,Basti,Block Office,82.7822,26.8361,2023,7.83,702,0,427,21,0.59,8,0,0,305,66,34,37,3,0.6,2,7
7815,Uttar Pradesh,Basti,Block Office,82.3661,26.7797,2023,7.71,461,0,256,7,0.51,0,0,0,195,50,17,12,3,0.39,1,3
7816,Uttar Pradesh,Bijnor,Block Office,78.7317,29.3797,2023,7.61,322,0,195,14,0.47,0,0,0.51,160,56,5,8,1,0.42,28,0
7817,Uttar Pradesh,Bijnor,Fathepur Dhara,78.8372,29.446,2023,7.6,529,0,305,14,0.35,8,8,0,280,68,26,4,1,0,0,0
7818,Uttar Pradesh,Bijnor,Rasulpur Abad,78.6655,29.4459,2023,7.82,438,0,244,7,0.39,19,0,0,190,76,0,17,1,1.54,2.91,0
7819,Uttar Pradesh,Bijnor,Block Office,78.3743,29.3255,2023,7.92,423,0,256,14,0.3,6,0,0,200,52,17,14,4,0.45,11,0
7820,Uttar Pradesh,Bijnor,Rohniya,78.254,28.1772,2023,7.4,829,0,439,14,0.19,45,0,0,380,100,31,19,8,7.49,9.13,4.24
7822,Uttar Pradesh,Bijnor,Bhiriya Khera,78.2633,29.06,2023,7.6,863,0,451,35,0.23,52,0,0,420,92,46,22,6,0.09,0,59.52
7823,Uttar Pradesh,Bijnor,Block Office,78.1862,29.1475,2023,7.98,614,0,232,14,0.42,82,0,0,300,60,36,16,5,4.07,0,5
7824,Uttar Pradesh,Bijnor,Suwaheri Khurd,78.1756,29.4675,2023,7.74,890,0,439,35,0.25,51,0,0,450,60,72,3,9,0.15,5,19
7825,Uttar Pradesh,Bijnor,Khushalpur,78.5389,29.4408,2023,7.8,740,0,390,43,0.4,13,0,0,330,88,26,28,3,0.36,0,10.84
7826,Uttar Pradesh,Bijnor,Chakrani/ Gidarpura,78.0494,29.8022,2023,8,842,0,403,57,0.27,50,0,0,350,40,60,47,10,2.29,4,136
7827,Uttar Pradesh,Bijnor,Hakeempur,78.1128,29.5585,2023,7.5,725,0,390,14,0.38,29,30,0,345,112,16,20,5,0.42,1.33,19.09
7828,Uttar Pradesh,Bijnor,Jagdishpur,78.2479,28.5627,2023,7.9,380,0,226,7,0.51,18,0,0,190,60,10,7,4,0.95,0,0
7829,Uttar Pradesh,Bijnor,Medduwalla,78.3975,29.7094,2023,7.2,647,0,354,21,0.3,20,14,0,320,116,7,14,2,0.7,0,0
7830,Uttar Pradesh,Bijnor,Ramdas Wali,78.2469,29.697,2023,7.7,758,0,323,78,0.37,27,8,0,340,124,7,28,6,0,1.17,0
7831,Uttar Pradesh,Bijnor,Block Office,78.4028,29.1519,2023,7.73,1175,0,549,92,0.29,25,0,0,450,72,65,70,7,0,15,0
7832,Uttar Pradesh,Bijnor,Murahat,78.4011,29.0497,2023,7.9,548,0,244,35,0.21,29,0,0,225,68,13,23,5,0.25,6.95,7.83
7833,Uttar Pradesh,Budaun,Block Hq,78.9113,28.394,2023,8.01,704,0,317,43,0.17,25,0,0,220,40,29,47,21,2.34,3,12
7834,Uttar Pradesh,Budaun,Biharipur Dharmpur,79.0069,28.3041,2023,8.25,464,0,256,7,0,0,0,0,200,56,14,9,3,0.11,3.17,0
7835,Uttar Pradesh,Budaun,Block Hq,78.9297,28.3126,2023,7.8,854,0,366,50,0.16,35,0,0,330,76,34,32,8,0.4,1,20
7836,Uttar Pradesh,Budaun,Karia Bain,78.6709,28.1451,2023,7.91,554,0,244,21,0.24,22,0,0,225,44,28,17,4,0.25,1,12.64
7837,Uttar Pradesh,Budaun,Diyori,79.4179,27.9844,2023,7.88,562,0,305,7,0.33,7,0,0,220,52,22,22,3,0.58,5.94,9.11
7838,Uttar Pradesh,Budaun,Tiglapur,79.2927,28.0405,2023,8.15,644,0,317,21,0.32,16,0,0,210,44,24,49,3,0.18,8.77,6.4
7839,Uttar Pradesh,Budaun,Allahpur Kasba,79.2517,27.9083,2023,7.82,684,0,256,64,0.36,30,0,0,270,64,26,25,15,2.37,0,8.2
7840,Uttar Pradesh,Budaun,Behta Dambanagar,79.1608,27.91,2023,8.23,649,0,287,14,0.71,10,46,0,270,72,22,23,3,0,0,0
7841,Uttar Pradesh,Budaun,Block Hq,79.0811,27.8173,2023,7.99,392,0,189,14,0.4,9,0,0,180,40,19,6,3,0.07,2,0
7842,Uttar Pradesh,Budaun,Khiriya Bakarpur,79.0259,27.9316,2023,8.14,630,0,232,36,0.36,30,30,0,290,64,31,8,3,0.2,0,4.99
7843,Uttar Pradesh,Budaun,Sagrai,78.8697,28.0371,2023,8.22,524,0,183,14,0.2,72,0,0,230,48,26,10,6,1.39,0,4.52
7844,Uttar Pradesh,Budaun,H P Block Office.,79.133,28.0706,2023,7.92,854,0,329,64,0.15,43,0,0,340,68,41,34,7,0.24,2,13
7845,Uttar Pradesh,Budaun,Kunwargaon,79.1421,28.1777,2023,7.78,500,0,281,7,0.26,0,0,0,210,40,26,15,4,0.66,2.03,0
7846,Uttar Pradesh,Budaun,"Adjacent To Sbi Bank,Ujhani",79.0144,28.0027,2023,7.86,1104,0,329,92,0.34,77,46,0,360,68,46,83,7,0.16,0,3.54
7847,Uttar Pradesh,Budaun,Laxminagra,78.8528,27.9225,2023,8.06,510,0,268,7,0.5,21,0,0,180,40,19,29,4,1.18,0,10.48
7848,Uttar Pradesh,Budaun,Block Hq,79.3483,27.8113,2023,8.02,472,0,195,28,0.35,11,12,0,180,52,12,22,4,0.24,0,3
7849,Uttar Pradesh,Budaun,Firozapur,79.1948,27.8116,2023,8.39,842,6,256,57,0.4,116,0,0,200,44,22,97,3,0.8,0,7.8
7850,Uttar Pradesh,Budaun,Block Hq,79.0581,28.2045,2023,8.04,1136,0,476,64,0.43,43,0,0,180,32,24,151,7,2.06,0,49
7851,Uttar Pradesh,Bulandshahar,Block Office Premises,77.8985,28.5233,2023,8.23,583,0,354,14,0.82,23,14,0,250,60,24,43,5,0,2,14
7852,Uttar Pradesh,Bulandshahar,Amarpur,78.0612,28.2599,2023,7.81,781,0,354,21,0.38,86,0,0,290,68,29,60,6,3.45,4,0
7853,Uttar Pradesh,Bulandshahar,Block H.Q,78.2523,28.3612,2023,8.06,484,0,268,14,0.52,0,0,0,180,40,19,22,4,0.09,1,0
7854,Uttar Pradesh,Bulandshahar,Block H.Q,77.9216,28.1288,2023,8.03,695,0,329,21,0.29,24,9,0,190,40,22,60,5,0.21,0,4
7855,Uttar Pradesh,Bulandshahar,Block H.Q,77.9515,28.6436,2023,8.17,598,0,342,14,0.58,8,0,0,210,36,29,38,6,2.94,0,19
7856,Uttar Pradesh,Bulandshahar,Dist. H.Q,77.8354,28.3886,2023,8.18,315,0,134,14,0.34,22,0,0,140,36,12,6,2,0,1,0
7857,Uttar Pradesh,Bulandshahar,Block H.Q,78.206,28.1923,2023,8.16,667,0,342,14,0.21,25,11,0,160,36,17,81,5,0.18,0,36
7858,Uttar Pradesh,Bulandshahar,Bhopatpur,78.2834,28.2963,2023,7.91,647,0,366,7,0.55,24,15,0,300,48,44,26,4,0.19,1.32,12.87
7859,Uttar Pradesh,Bulandshahar,Block H.Q,78.2567,28.1995,2023,8.29,783,0,378,21,0.73,42,0,0,180,36,22,91,5,3.67,0,10
7860,Uttar Pradesh,Bulandshahar,Narora,78.3959,28.1884,2023,8.22,350,0,134,14,0.25,30,0,0,130,36,10,15,4,0,1.55,3.23
7861,Uttar Pradesh,Bulandshahar,Block H.Q,77.7906,28.5805,2023,8.08,642,0,293,28,0.93,40,0,0,240,48,29,45,4,2.02,0,7
7862,Uttar Pradesh,Bulandshahar,Block H.Q,78.0885,28.4139,2023,8.2,970,0,464,35,0.26,27,30,0,250,40,36,100,7,0,0,106
7863,Uttar Pradesh,Bulandshahar,Kaisawan,78.0334,28.3035,2023,8.2,358,0,171,14,1,22,0,0,150,40,12,16,5,0.29,12,16
7864,Uttar Pradesh,Bulandshahar,Dastura,77.7032,28.2753,2023,8.13,866,0,390,35,0.34,12,68,0,190,36,24,115,6,0.33,0,13.97
7865,Uttar Pradesh,Bulandshahar,Block H.Q,77.8422,28.2358,2023,8.13,1006,0,439,43,0.39,46,10,0,210,32,31,130,6,0.05,0,24
7866,Uttar Pradesh,Bulandshahar,Block H.Q,77.9774,28.5264,2023,8.12,849,0,366,21,0.77,60,23,0,300,44,46,59,7,0.22,0,17
7867,Uttar Pradesh,Bulandshahar,Block H.Q,78.0617,28.1706,2023,8.08,590,0,281,14,0.13,30,5,0,200,44,22,42,5,0.27,1,7
7868,Uttar Pradesh,Bulandshahar,Palra,77.9446,28.2664,2023,7.87,564,0,281,7,0.6,31,0,0,250,52,29,13,5,0.23,0,7
7869,Uttar Pradesh,Bulandshahar,Block H.Q,78.0042,28.2791,2023,8.2,1710,0,598,220,0.7,121,32,0,440,36,84,220,8,0.12,0,35
7870,Uttar Pradesh,Bulandshahar,Nawada,78.0632,28.2595,2023,8.12,1109,0,439,78,1.8,64,8,0,180,28,27,177,6,0.22,1.05,14.78
7871,Uttar Pradesh,Bulandshahar,Block H.Q,77.6918,28.4549,2023,8.16,1565,0,610,106,0.4,80,30,0,170,68,0,278,5,0.26,0,27
7872,Uttar Pradesh,Bulandshahar,Gesupur,77.7012,28.5286,2023,8.18,1277,0,647,7,0.84,65,19,0,190,36,24,200,10,0,0,26.98
7873,Uttar Pradesh,Bulandshahar,Block H.Q,78.0541,28.6248,2023,7.92,1138,0,427,99,0,39,42,0,340,20,70,103,7,0.4,0,7
7874,Uttar Pradesh,Bulandshahar,Block H.Q,78.16,28.4879,2023,8.24,502,0,268,7,0.13,25,0,0,230,44,29,8,4,0.12,0,0
7875,Uttar Pradesh,Chandauli,Sirkolpur,83.4104,25.3646,2023,8.02,652,0,342,28,0.9,15,10,0,210,40,26,59,2,0.06,0,11.42
7876,Uttar Pradesh,Chandauli,Chahania,83.2094,25.4178,2023,7.92,896,0,415,50,0.22,24,16,0,350,56,50,41,4,0,0,12
7877,Uttar Pradesh,Chandauli,Sirkalpur,83.28,25.4863,2023,8,588,0,354,14,0.3,10,0,0,270,48,34,20,4,3.35,8.01,0
7878,Uttar Pradesh,Chandauli,Kauwada Ghat,83.25,24.8168,2023,7.9,353,0,195,14,0.3,8,0,0,100,36,2,41,0,2.16,0,0
7879,Uttar Pradesh,Chandauli,Lawari Khurd,83.2249,24.8972,2023,7.91,344,0,134,28,0.35,26,6,0,130,36,10,21,6,0,0,0
7880,Uttar Pradesh,Chandauli,Magrahi,83.2993,24.8268,2023,7.75,521,0,220,50,0.41,15,0,0,110,36,5,68,10,1.02,3.3,0
7881,Uttar Pradesh,Chandauli,Munuwat,83.3264,24.8922,2023,7.7,263,0,110,28,0.3,11,0,0,120,36,14,10,5,3.8,0,0
7882,Uttar Pradesh,Chandauli,Sikarganj,83.217,25.0082,2023,7.75,460,0,256,14,0.46,8,7,0,190,48,17,25,3,0.12,0,0
7883,Uttar Pradesh,Chandauli,Sikarganj,83.1271,25.0099,2023,8.11,581,0,342,7,0.85,0,7,0,160,48,10,64,0,0.38,0,3.09
7884,Uttar Pradesh,Chandauli,Sakaldiha,83.2583,25.3553,2023,8.14,1502,0,683,85,1,48,9,0,230,28,38,234,4,0,4,17
7885,Uttar Pradesh,Chandauli,Banbhishampur,83.2988,24.9949,2023,7.88,484,0,256,14,0.6,12,0,0,190,24,17,26,1,0.08,0,0
7886,Uttar Pradesh,Chitrakoot,Kauhari,80.8704,25.3665,2023,8.09,819,0,464,14,0.69,7,6,0,300,44,46,50,0,0.12,0,4.51
7887,Uttar Pradesh,Chitrakoot,Kol Gadhiya,80.9528,25.196,2023,7.94,909,0,476,21,1.04,19,14,0,370,40,65,39,0,0.06,0,3.97
7888,Uttar Pradesh,Chitrakoot,Ragauli,80.9733,25.2507,2023,7.82,799,0,427,21,0.54,7,9,0,340,52,50,26,1,0.44,0,3.14
7889,Uttar Pradesh,Chitrakoot,Roli,80.7276,25.22,2023,8.2,853,0,439,36,1.29,8,7,0,290,56,36,61,0,0,0,4.64
7890,Uttar Pradesh,Chitrakoot,Barachhi,81.164,25.1787,2023,8.04,854,0,464,14,0.86,0,22,0,290,68,29,63,0,0,0,3.61
7891,Uttar Pradesh,Chitrakoot,Hardiya,81.2254,25.0854,2023,8.07,466,0,195,43,0.45,10,0,0,150,40,12,36,3,0.78,0,0
7892,Uttar Pradesh,Chitrakoot,Karouha,81.0378,24.9996,2023,7.54,211,0,85,21,0.13,0,0,0,70,20,5,14,3,13.54,0,0
7893,Uttar Pradesh,Chitrakoot,Kubri,81.1652,25.0047,2023,7.94,1326,0,256,163,0.36,93,156,0,590,100,82,22,20,0.27,0,3.05
7894,Uttar Pradesh,Chitrakoot,Markundi,80.9545,25.0201,2023,7.87,378,0,146,21,0.39,18,23,0,150,44,10,16,4,0.17,0,0
7895,Uttar Pradesh,Chitrakoot,Saharipurwa,80.0659,25.1056,2023,7.84,527,0,232,28,0.36,7,25,0,180,56,10,37,1,0.32,0,0
7896,Uttar Pradesh,Chitrakoot,Tikariya Railway,80.8756,25.0013,2023,7.57,1156,0,317,135,0.34,57,79,0,290,68,29,101,49,0.4,0,0
7897,Uttar Pradesh,Chitrakoot,Bambhuri,81.3706,25.2192,2023,7.6,701,0,317,28,0.27,23,34,0,290,60,34,26,0,0.43,0,0
7898,Uttar Pradesh,Chitrakoot,Bargarh Mod,81.4398,25.1829,2023,7.47,860,0,232,128,0.48,49,8,0,330,104,17,44,3,13.36,0,0
7899,Uttar Pradesh,Chitrakoot,Boodha,81.0182,25.2712,2023,7.82,784,0,439,14,0.64,0,0,0,310,44,48,37,0,0.58,0,4.17
7900,Uttar Pradesh,Chitrakoot,Lokhari,81.2533,25.1916,2023,7.94,666,0,342,21,0.47,6,14,0,180,52,12,70,0,0.67,0,0
7901,Uttar Pradesh,Chitrakoot,Rajapur,81.1488,25.3822,2023,8.06,1386,0,622,99,0.5,22,15,0,480,80,67,93,2,0,0,10.65
7902,Uttar Pradesh,Chitrakoot,Block Office,81.2361,25.2469,2023,7.96,1595,0,476,227,0.51,36,40,0,610,108,82,76,2,0.5,0,9
7903,Uttar Pradesh,Chitrakoot,Block Office,81.2361,25.2469,2023,7.62,1091,0,329,128,0.47,49,25,0,290,108,5,99,16,1.06,0,5
7904,Uttar Pradesh,Chitrakoot,Block Office,81.2361,25.2469,2023,8,945,0,500,28,0.96,11,13,0,220,40,29,115,0,0.1,0,8
7905,Uttar Pradesh,Chitrakoot,Block Office,81.2361,25.2469,2023,7.65,1699,0,293,227,0.88,129,185,0,530,184,17,142,2,0.15,0,0
7906,Uttar Pradesh,Deoria,Block Office,83.7358,26.5558,2023,7.81,532,0,183,43,0.11,40,0,0,200,52,17,27,6,0.13,3,0
7907,Uttar Pradesh,Deoria,Block Office,84.1136,26.2669,2023,8.06,899,0,329,21,0.28,120,0,0,270,48,36,76,4,3.53,0,0
7908,Uttar Pradesh,Deoria,Block Office,83.7261,26.2678,2023,7.9,720,0,317,43,0.45,24,0,0,280,48,38,32,4,4.77,5,0
7909,Uttar Pradesh,Deoria,Block Office,83.8697,26.1681,2023,7.84,632,0,305,21,0.22,9,9,0,250,56,26,25,4,0.24,0,0
7910,Uttar Pradesh,Deoria,Bahadurpur,83.8514,26.3765,2023,7.92,500,0,268,14,0.4,0,0,0,220,48,24,11,5,0.33,1.57,0
7911,Uttar Pradesh,Deoria,Bahaur Chauraha (Near R B,83.7976,26.3703,2023,7.78,572,0,268,28,0.12,16,0,0,220,52,22,25,8,0.24,3.13,0
7912,Uttar Pradesh,Deoria,Block Office,83.7608,26.3711,2023,7.82,889,0,317,85,0.25,25,0,0,310,60,38,52,6,7.1,0,31
7913,Uttar Pradesh,Deoria,"Garer Chak, Near House",83.7876,26.399,2023,8.12,549,0,305,14,0.21,0,0,0,190,68,5,35,3,1.3,29.9,0
7914,Uttar Pradesh,Deoria,"In Front Of Nayra Petrol Pump,",83.7493,26.3291,2023,8.25,391,0,220,7,0.32,0,0,0,160,48,10,14,3,0,2.38,0
7915,Uttar Pradesh,Deoria,Lagra Bazar,83.7179,26.383,2023,7.72,644,0,329,21,0.22,12,0,0,220,48,24,42,7,0,0,0
7916,Uttar Pradesh,Deoria,Block Office,83.4512,26.3514,2023,8.09,580,0,305,14,0.57,0,0,0,180,36,22,47,3,2.2,0,0
7917,Uttar Pradesh,Deoria,Block Office,84.0281,26.3139,2023,7.95,515,0,281,7,0.22,0,0,0,240,48,29,6,3,0.89,0,10
7918,Uttar Pradesh,Deoria,Block Office,83.7783,26.4961,2023,7.72,1102,0,329,142,0,51,0,0,280,76,22,114,7,1.19,0,6
7919,Uttar Pradesh,Deoria,Block Office,83.8197,26.6683,2023,8.22,457,0,244,7,0.56,18,0,0,200,48,19,11,3,0.78,0,0
7920,Uttar Pradesh,Deoria,Block Office,83.6714,26.5831,2023,8.22,327,0,159,14,0.18,6,0,0,140,36,12,9,2,0.98,3,0
7921,Uttar Pradesh,Deoria,Block Office,83.9639,26.2174,2023,8.01,397,0,207,14,0.4,0,0,0,180,48,14,6,3,0.05,2,0
7922,Uttar Pradesh,Deoria,Block Office,83.5769,26.5822,2023,7.87,384,0,207,7,0,7,0,0,160,52,7,13,3,1.77,1,0
7923,Uttar Pradesh,Deoria,Block Office,83.815,26.5628,2023,8.04,397,0,207,7,0.48,14,0,0,190,60,10,3,2,0,0,0
7924,Uttar Pradesh,Deoria,Block Office,83.6136,26.4564,2023,8.09,504,0,268,14,0.5,0,0,0,210,64,12,16,4,1.59,0,0
7925,Uttar Pradesh,Deoria,Block Office,83.9222,26.2994,2023,8.15,412,0,220,14,0.7,6,0,0,180,48,14,11,2,0.69,0,0
7926,Uttar Pradesh,Deoria,Block Office,83.8908,26.6278,2023,7.74,637,0,220,71,0.19,30,0,0,200,48,19,52,4,0.48,0,0
7929,Uttar Pradesh,Etah,Block Office,78.3063,27.4798,2023,8.06,870,0,458,50,0.43,28,0,0,245,52,28,91,6,0.48,0,30
7936,Uttar Pradesh,Etawah,-----Do-----,78.9572,26.7191,2023,7.79,726,0,415,28,0.46,0,21,0,330,48,51,26,3,0,0,7
7937,Uttar Pradesh,Etawah,Etawah City (Anand Nagar),79.0346,26.7702,2023,7.74,1012,0,488,50,0.31,28,49,0,340,64,44,93,4,0.3,0,20.17
7938,Uttar Pradesh,Etawah,Kaneshighar,79.0562,26.6298,2023,7.36,3397,0,549,411,0.16,356,500,0,1061,160,161,340,9,1.51,1.18,21.68
7939,Uttar Pradesh,Etawah,Hand Pump Of Block Office,79.0859,26.8419,2023,7.96,798,0,390,35,0.58,30,26,0,280,44,41,71,5,0.23,0,30
7940,Uttar Pradesh,Etawah,Takpura,79.1874,26.8974,2023,8.03,464,0,268,7,0.43,19,0,0,220,36,32,15,2,0.44,0,17.67
7941,Uttar Pradesh,Etawah,Dhakpura,79.311,26.7771,2023,7.56,1287,0,500,121,0.51,47,5,0,330,60,44,137,11,1.67,0,20.2
7942,Uttar Pradesh,Etawah,Hand Pump Of Block Office,79.2133,26.7362,2023,7.82,1504,0,586,149,0.74,28,56,0,495,44,94,136,5,0.29,0,43
7943,Uttar Pradesh,Etawah,Hand Pump Of Block Office,79.1404,26.5619,2023,7.74,762,0,464,7,0.63,6,23,0,210,36,29,89,3,0,0,9
7944,Uttar Pradesh,Etawah,Hand Pump Of Block Office,78.9121,26.8762,2023,7.73,1013,0,451,57,0.4,39,22,0,310,52,44,99,4,0,0,10
7945,Uttar Pradesh,Etawah,Hand Pump Of Block Office Adjacent,79.2339,26.6205,2023,7.9,672,0,366,14,0.5,39,10,0,300,44,46,28,3,0.18,0,12
7946,Uttar Pradesh,Etawah,At Entrance Of Block Office Gate,78.9604,26.9565,2023,7.78,789,0,439,14,0.26,41,0,0,280,64,29,67,5,2.49,0,11
7947,Uttar Pradesh,Etawah,Hand Pump Of Block Office,79.2963,26.9114,2023,7.96,939,0,549,14,0.98,25,0,0,300,36,51,97,6,0.14,0,28
7948,Uttar Pradesh,Faizabad / Ayodhya,Block Offc.,81.7692,26.5898,2023,7.91,597,0,329,14,0.98,8,0,0,240,36,36,24,4,0.84,0,7
7949,Uttar Pradesh,Faizabad / Ayodhya,Near Community Health Center,82.1388,26.5949,2023,8.02,672,0,354,14,0.64,18,0,0,255,60,25,32,4,1.35,18,0
7950,Uttar Pradesh,Faizabad / Ayodhya,Near Palu St.,82.0204,26.5545,2023,8.03,378,0,195,14,0.47,6,0,0,160,40,14,12,2,0.35,4,0
7951,Uttar Pradesh,Faizabad / Ayodhya,Near Tri Junction,82.1403,26.7337,2023,8.07,315,0,159,7,0.69,20,0,0,150,40,12,2,3,0.54,2,0
7952,Uttar Pradesh,Faizabad / Ayodhya,Block Offc.,81.5857,26.7443,2023,7.93,685,0,390,7,0.56,6,0,0,280,48,38,26,3,5.68,0,0
7953,Uttar Pradesh,Faizabad / Ayodhya,Located Just Outside Thana,82.3326,26.6451,2023,7.78,490,0,256,7,0.53,21,0,0,220,52,22,9,4,2.83,4,0
7954,Uttar Pradesh,Faizabad / Ayodhya,Located In Compound Of Observers,81.9429,26.6278,2023,7.67,995,0,488,36,0.31,25,20,0,380,46,64,50,4,0.13,0,8
7955,Uttar Pradesh,Faizabad / Ayodhya,Located Near Rajkiya Ayurvedic,82.2665,26.7023,2023,7.86,671,0,354,14,0.29,10,18,0,280,56,34,24,2,0.08,0,3
7956,Uttar Pradesh,Faizabad / Ayodhya,Rudauli Intercollg,81.755,26.7805,2023,7.88,640,0,329,21,0.55,16,0,0,280,56,34,15,4,1.01,4,3
7957,Uttar Pradesh,Faizabad / Ayodhya,Located Just Below Sohal Over Bridge,81.9908,26.7358,2023,7.74,664,0,342,21,0.46,12,0,0,300,52,41,12,4,0.17,3,5
7958,Uttar Pradesh,Faizabad / Ayodhya,Infront Of Rajput Minirice Mill,82.2424,26.55,2023,7.73,799,0,384,21,0.2,44,7,0,290,72,26,48,3,0.18,1,0
7968,Uttar Pradesh,Fatehpur,Hand Pump Of Block Office,81.1028,25.7698,2023,7.99,2017,0,695,249,0.7,69,18,0,590,112,74,185,9,0.51,0,21
7969,Uttar Pradesh,Fatehpur,Dhana,80.3208,25.9115,2023,7.64,920,0,519,21,0.34,0,0,0,260,44,36,89,3,20.33,0,4.89
7970,Uttar Pradesh,Fatehpur,Hand Pump Of Block Office,80.3112,26.0141,2023,7.42,1158,0,378,114,0.2,77,16,0,490,40,94,34,2,0.28,0,5
7971,Uttar Pradesh,Fatehpur,Darauli,80.7497,25.7822,2023,7.82,991,0,512,21,0.98,19,27,0,320,40,53,77,5,0.33,0,28.51
7972,Uttar Pradesh,Fatehpur,Hand Pump Of Block Office,80.8855,25.7591,2023,7.97,829,0,451,21,0.77,15,0,0,280,44,41,60,4,0.6,0,6
7973,Uttar Pradesh,Fatehpur,Shankarpur,80.6276,25.767,2023,7.94,780,0,439,7,0.59,10,8,0,290,48,41,43,3,0.44,0,7.71
7974,Uttar Pradesh,Fatehpur,Hand Pump Of Block Office,80.6292,25.8428,2023,7.48,1054,0,403,85,0.52,42,36,0,400,88,43,55,3,0.14,0,15
7975,Uttar Pradesh,Fatehpur,Lohari,81.0263,26.0102,2023,7.82,686,0,305,36,0.44,26,20,0,230,60,19,49,4,0.11,1.39,13.51
7976,Uttar Pradesh,Fatehpur,Block Office,81.2289,25.5393,2023,7.61,1209,0,488,71,0.52,75,23,0,390,72,50,94,4,0.18,0,10
7977,Uttar Pradesh,Fatehpur,Chakiwa,81.0231,25.8929,2023,7.82,1196,0,622,21,0.57,47,6,0,360,28,70,103,5,0.39,0,24.03
7978,Uttar Pradesh,Fatehpur,Dharampur,80.9875,25.7851,2023,7.72,841,0,439,28,0.84,9,9,0,320,44,50,43,5,0.45,1.26,14.18
7979,Uttar Pradesh,Fatehpur,Block Office,81.1276,25.8653,2023,7.57,943,0,427,50,0.84,23,22,0,380,64,53,21,33,0.32,0,19
7980,Uttar Pradesh,Fatehpur,Bindki,80.5806,26.0298,2023,7.56,1499,0,573,78,0.43,54,145,0,460,72,67,132,3,0.51,0,32.15
7981,Uttar Pradesh,Fatehpur,Block Office,80.5166,26.0562,2023,7.85,754,0,354,36,0.95,21,8,0,310,52,43,26,4,0.08,0,12
7982,Uttar Pradesh,Fatehpur,Block Office,80.7058,26.0358,2023,8.1,1154,0,586,28,1.95,48,0,0,310,32,55,117,8,0,0,84
7983,Uttar Pradesh,Fatehpur,Chaudgara,80.585,26.123,2023,7.42,1975,0,476,376,0.5,17,56,0,790,112,122,86,4,0.87,0,25.47
7984,Uttar Pradesh,Fatehpur,-----Do----,81.0586,25.6917,2023,7.98,756,0,366,21,0.96,20,10,0,310,56,41,24,4,0.18,0,7
7985,Uttar Pradesh,Fatehpur,Rakshpalpur,81.1332,25.6256,2023,7.74,1212,0,415,99,0.47,61,75,0,400,56,62,89,5,0.82,0,10.87
7986,Uttar Pradesh,Fatehpur,Block Office,80.7959,25.9522,2023,8.12,1180,0,622,14,1.14,49,0,0,230,36,34,160,6,0.41,0,44
7997,Uttar Pradesh,G.B. Nagar,Outside Block Office Premises,77.3771,28.5884,2023,8.14,759,0,354,57,0.5,20,29,0,280,60,31,49,8,0.24,0,6
7998,Uttar Pradesh,G.B. Nagar,Block H.Q,77.5535,28.5545,2023,8.22,828,0,390,43,0.43,19,10,0,250,36,38,80,7,0.09,0,42
7999,Uttar Pradesh,G.B. Nagar,Dadri,77.5535,28.5544,2023,8.01,1401,0,464,99,0.8,90,72,0,260,40,39,195,8,0.08,0,49.55
8000,Uttar Pradesh,G.B. Nagar,Bagpur,77.5308,28.3235,2023,8.04,1258,0,207,92,0.4,310,66,0,420,80,53,99,4,0.06,0,8
8001,Uttar Pradesh,G.B. Nagar,Block H.Q,77.5559,28.3533,2023,8.11,2174,0,830,113,1.42,190,14,0,230,16,46,369,6,0.07,1,55
8002,Uttar Pradesh,G.B. Nagar,Fatehpur Atta,77.4973,28.3069,2023,8.15,684,0,329,21,1.2,39,8,0,270,52,34,48,4,0,0,11
8003,Uttar Pradesh,G.B. Nagar,Parsaul,77.5939,28.3256,2023,8.02,391,0,183,14,0.9,28,0,0,180,40,19,10,3,0,0,13
8004,Uttar Pradesh,G.B. Nagar,Block H.Q,77.5672,28.125,2023,8.16,1619,0,573,99,1.7,133,17,0,170,36,19,290,3,0.17,0,32
8005,Uttar Pradesh,G.B. Nagar,Neem Ka Khara Kua,77.6072,28.1378,2023,8.46,986,18,378,35,1.04,80,23,0,250,48,32,111,12,0.05,0,28.47
8006,Uttar Pradesh,G.B. Nagar,Neemka,77.6068,28.1383,2023,8.1,781,0,342,43,0.57,68,17,0,350,64,46,40,9,0,0,26.19
8007,Uttar Pradesh,G.B. Nagar,Ronija,77.5626,28.2762,2023,8.28,779,0,390,14,0.79,31,0,0,220,40,29,76,5,0.06,0,20.61
8008,Uttar Pradesh,G.B. Nagar,Bhagwantpur Chhatanga,77.5392,28.1081,2023,7.97,4416,0,390,362,0.46,1350,0,0,610,116,78,760,20,0.42,0,9
8009,Uttar Pradesh,G.B. Nagar,Choroli,77.6077,28.136,2023,7.94,1090,0,146,113,0.48,92,160,0,310,108,10,98,5,0.11,0,13
8010,Uttar Pradesh,G.B. Nagar,Gopalgarh,77.5584,28.0902,2023,8.45,1191,24,451,50,1.02,86,10,0,230,32,36,176,6,0.07,0,26
8011,Uttar Pradesh,G.B. Nagar,Rampur Banger,77.5697,28.1665,2023,8.38,774,18,329,21,2.6,38,7,0,180,36,22,94,2,0.09,1,14
8012,Uttar Pradesh,Ghaziabad,In Block Office,77.6208,29.2978,2023,7.88,940,0,549,14,1.2,39,0,0,170,32,22,158,6,3.07,0,44
8013,Uttar Pradesh,Ghaziabad,Dhaulana,77.6473,28.6214,2023,7.99,438,0,244,7,1,27,0,0,190,28,29,19,3,0.13,0,32
8014,Uttar Pradesh,Ghaziabad,Naraina,77.7389,28.6065,2023,7.96,266,0,134,4,0.45,21,0,0,120,24,15,6,4,0,1.52,11.71
8015,Uttar Pradesh,Ghaziabad,Near Rly. St.,77.4367,28.6517,2023,7.68,3032,0,476,766,0.38,65,27,0,505,72,79,520,8,0,0,12
8016,Uttar Pradesh,Ghaziabad,Dada Shree Ramji Gate,77.4613,28.7454,2023,8.17,1118,0,598,14,0.38,88,22,0,240,72,15,155,21,0,0,0
8017,Uttar Pradesh,Ghaziabad,Jal Kal Vibhag,77.3435,28.6847,2023,7.39,2976,0,329,709,0,206,79,0,620,202,28,398,7,0.15,0,11.13
8018,Uttar Pradesh,Ghaziabad,Jal Nigam Pani Tanki Inside,77.439,28.6361,2023,7.96,1291,0,329,241,0.82,24,8,0,140,32,15,240,5,0.27,0,26.29
8019,Uttar Pradesh,Ghaziabad,Kali Temple Boundary Wall,77.3618,28.6889,2023,7.81,1617,0,439,248,0.5,49,68,0,180,36,22,305,5,0,1.08,15.28
8020,Uttar Pradesh,Ghaziabad,Madhuvan Village,77.4804,28.7026,2023,7.62,1062,0,427,78,0.72,55,40,0,310,68,34,105,6,0.52,0,52.91
8021,Uttar Pradesh,Ghaziabad,Mother Care Public School,77.4226,28.6927,2023,7.58,1372,0,549,128,0.17,34,32,0,285,74,24,185,6,0.11,0,30.64
8022,Uttar Pradesh,Ghaziabad,Near Meadows CafÃ©,77.4474,28.7214,2023,8.06,1605,0,647,106,0.45,68,68,0,230,46,28,260,35,0,0,13.95
8023,Uttar Pradesh,Ghaziabad,"Near Sai Temple, Saburi Park",77.4083,28.672,2023,7.96,849,0,464,28,0,16,16,0,340,36,61,42,6,0.43,0,19.95
8024,Uttar Pradesh,Ghaziabad,Rohtash Singh,77.3859,28.6871,2023,8.05,1665,0,415,326,1.2,35,5,0,125,24,16,346,6,0.16,0,15.86
8038,Uttar Pradesh,Ghaziabad,Sapnawat Prachin Nageshwar Mandir,77.7285,28.6273,2023,7.79,895,0,476,21,1.2,43,14,0,230,22,43,120,5,0.06,0,12.27
8039,Uttar Pradesh,Ghaziabad,In Block Office,77.2894,28.7472,2023,7.99,2125,0,439,383,0.94,136,28,0,260,64,24,385,23,0.15,0,5
8040,Uttar Pradesh,Ghaziabad,Abupur Gate,77.5296,28.7898,2023,8.01,897,0,451,21,1.1,43,14,0,120,18,18,162,4,0.21,0,15.16
8041,Uttar Pradesh,Ghaziabad,In Block Office,77.5033,28.77,2023,7.87,962,0,415,78,0.81,47,0,0,300,71,30,86,9,0.73,0,70
8042,Uttar Pradesh,Ghaziabad,On Road Side,77.5126,28.7766,2023,7.85,554,0,268,21,1.2,37,6,0,150,24,22,70,4,0,0,17.88
8043,Uttar Pradesh,Ghaziabad,Prachin Shiv Mandir Gaonkheda,77.5262,28.7738,2023,7.76,1042,0,537,21,1,44,25,0,150,20,24,158,50,0.18,0,12.97
8044,Uttar Pradesh,Ghaziabad,"Sumitra Sadan House, Gobind Kumar",77.4908,28.7498,2023,7.65,748,0,403,21,0.32,28,10,0,170,32,22,109,5,0.09,0,32.69
8045,Uttar Pradesh,Ghaziabad,In Block Office,77.4564,28.71,2023,7.9,1182,0,573,64,0.95,48,17,0,200,36,27,204,7,0,0,24
8046,Uttar Pradesh,Ghaziabad,In The Compound Of Shiv Temple,77.5376,28.6564,2023,8.02,515,0,232,14,0,37,16,0,180,32,24,40,4,0.07,0,0
8047,Uttar Pradesh,Ghaziabad,Near Honda Show Room,77.4502,28.7039,2023,7.54,1083,0,476,78,0.58,44,9,0,220,36,32,160,4,0.18,0,11.77
8048,Uttar Pradesh,Ghazipur,Block Office,83.0622,25.4561,2023,7.82,711,0,366,21,0.11,12,0,0,210,52,19,63,2,3.07,0,0
8049,Uttar Pradesh,Ghazipur,Block Office,83.3365,25.5462,2023,7.86,1586,0,732,121,3.15,20,0,0,390,40,70,184,2,4.72,0,52
8050,Uttar Pradesh,Ghazipur,Biraich,83.5585,25.6117,2023,7.91,1290,0,659,57,1.4,14,0,0,210,28,34,196,3,0.21,0,36.67
8051,Uttar Pradesh,Ghazipur,Block Office,83.0008,25.5684,2023,7.52,3119,0,464,610,0.2,273,13,0,0,64,98,441,17,2.81,3,14
8052,Uttar Pradesh,Ghazipur,Block Office,83.3724,25.7421,2023,7.81,1026,0,390,78,0.47,26,56,0,400,56,62,48,4,0.25,0,42
8053,Uttar Pradesh,Ghazipur,Block Office,83.5596,25.4143,2023,7.49,1630,0,549,191,0.57,30,70,0,650,156,62,74,2,0.91,0,13
8054,Uttar Pradesh,Ghazipur,Block Office,83.5597,25.8039,2023,7.72,896,0,439,28,0.67,31,8,0,290,44,43,69,3,0.11,0,11
8055,Uttar Pradesh,Ghazipur,Block Office,83.3006,25.6973,2023,7.8,898,0,439,50,0.76,0,8,0,360,52,55,37,2,0.06,0,41
8056,Uttar Pradesh,Ghazipur,Block Office,83.2279,25.5417,2023,7.83,1684,0,390,326,0.92,45,0,0,480,48,86,164,3,0.73,0,15
8057,Uttar Pradesh,Ghazipur,Pokhra Mod Bazar,83.1413,25.6155,2023,7.71,697,0,342,28,0.68,10,17,0,310,48,46,16,3,0.21,0,19.19
8058,Uttar Pradesh,Ghazipur,Jeevpur,83.5682,25.4835,2023,7.66,657,0,268,43,0.11,29,0,0,230,60,19,42,4,0.25,2.49,0
8059,Uttar Pradesh,Gonda,Block Office,81.9106,26.9758,2023,7.79,775,0,427,35,0,25,0,0,320,64,38,45,4,0,2,5
8060,Uttar Pradesh,Gonda,Block Office,82.4572,27.0775,2023,7.91,491,0,281,28,0.24,0,0,0,220,40,29,22,3,3.69,0,0
8061,Uttar Pradesh,Gonda,Block Office,81.7028,27.1308,2023,7.55,1155,0,549,64,1.1,50,10,0,410,68,58,94,3,0,0,4
8062,Uttar Pradesh,Gonda,Block Office,81.7611,27.1392,2023,7.54,603,0,366,7,0.35,14,0,0,290,68,29,18,5,1.23,23,0
8063,Uttar Pradesh,Gonda,Block Office,82.0428,27.2944,2023,7.96,1122,0,573,50,1.4,38,28,0,460,72,67,73,2,0,0,0
8064,Uttar Pradesh,Gonda,Block Office,81.9672,27.1189,2023,7.44,821,0,342,71,0.34,55,0,0,310,88,22,62,5,0.8,4,0
8065,Uttar Pradesh,Gonda,Block Office,81.7936,27.2056,2023,7.31,1188,0,561,85,0.27,14,23,0,365,68,47,93,45,9.17,130,0
8066,Uttar Pradesh,Gonda,Block Office,81.9683,27.1628,2023,7.59,540,0,317,14,0.61,5,0,0,250,64,22,16,3,0.47,14,0
8067,Uttar Pradesh,Gonda,Block Office,81.7864,27.0347,2023,7.29,660,0,390,14,0.26,5,0,0,280,74,23,32,4,2.29,18,0
8068,Uttar Pradesh,Gonda,Block Office,81.99,26.9556,2023,7.52,821,0,427,50,0.2,23,0,0,350,108,19,41,7,2.99,34,0
8069,Uttar Pradesh,Gonda,Block Office,82.1208,26.9478,2023,8.16,597,0,378,7,0.23,6,0,0,200,52,17,53,4,1.22,6,3
8070,Uttar Pradesh,Gorakhpur,In The Premises Of Collecterate.Adj.,83.3702,26.7489,2023,7.79,751,0,305,50,0.36,43,0,0,220,64,14,66,9,1.71,1,0
8071,Uttar Pradesh,Gorakhpur,Block Office,83.3528,26.5527,2023,7.95,695,0,305,43,0.23,19,0,0,280,48,38,30,3,5.17,1,0
8072,Uttar Pradesh,Gorakhpur,Bairiyadih/Babu Bariya,83.5593,26.3679,2023,7.74,764,0,427,14,0.11,0,0,0,350,92,29,14,2,3.56,21.98,0
8073,Uttar Pradesh,Gorakhpur,Block Office,83.5023,26.2836,2023,7.9,674,0,342,14,0.35,15,0,0,280,44,41,23,4,2.65,1,0
8074,Uttar Pradesh,Gorakhpur,Block Office,83.1645,26.4331,2023,7.97,532,0,268,14,0.2,0,16,0,240,40,34,11,2,0,0,6
8075,Uttar Pradesh,Gorakhpur,Bharohia,83.2832,26.9189,2023,8.14,328,0,171,21,0.47,0,0,0,140,44,7,11,1,0.13,2,0
8076,Uttar Pradesh,Gorakhpur,Block Office,83.4924,26.8989,2023,7.97,357,0,171,21,0.29,6,0,0,160,36,17,9,3,0,2,0
8077,Uttar Pradesh,Gorakhpur,Block Office,83.562,26.5844,2023,8.21,407,0,207,14,0.27,6,0,0,180,48,14,9,2,0.41,2,0
8078,Uttar Pradesh,Gorakhpur,Block Office,83.3945,26.8021,2023,7.98,756,0,372,36,0.52,0,0,0,320,40,53,24,4,1.31,0,6
8079,Uttar Pradesh,Gorakhpur,Rajpur Pasitola,83.3013,27.0253,2023,8.02,499,0,281,7,0.93,0,0,0,200,36,26,22,2,1.11,0,7.38
8080,Uttar Pradesh,Gorakhpur,Block Office,83.2678,27.2015,2023,7.94,620,0,268,36,0.29,25,0,0,250,48,31,25,4,2.04,0,0
8081,Uttar Pradesh,Gorakhpur,"At Primary School Gagha I, Hatwa;",83.4454,26.4333,2023,8.15,428,0,220,14,0.31,6,0,0,180,44,17,12,3,0.39,5.37,0
8082,Uttar Pradesh,Gorakhpur,Block Office,83.4376,26.4493,2023,8.17,510,0,281,14,0.41,0,0,0,220,48,24,13,3,0.3,8,0
8083,Uttar Pradesh,Gorakhpur,"Village-Dumsa Babupura, Near",83.4285,26.4493,2023,8.17,555,0,293,14,0.29,0,0,0,260,56,29,6,3,0.29,6.39,0
8084,Uttar Pradesh,Gorakhpur,Village-Rajpur; In Front Of H/O,83.4516,26.4477,2023,7.94,467,0,244,14,0,0,0,0,180,48,14,19,2,0.57,0,0
8085,Uttar Pradesh,Gorakhpur,Block Office,83.353,26.3558,2023,8.09,455,0,232,7,0.53,13,0,0,210,48,22,7,2,0,4,0
8086,Uttar Pradesh,Gorakhpur,Uttarsoth,83.295,26.767,2023,7.54,434,0,244,7,0.16,6,0,0,210,52,19,3,1,0.13,0,0
8087,Uttar Pradesh,Gorakhpur,Block Office,83.3106,26.867,2023,8.12,404,0,220,7,0.24,0,0,0,170,44,14,14,1,1.59,0,0
8088,Uttar Pradesh,Gorakhpur,Adjacent To Primary School,83.4187,26.5021,2023,7.72,794,0,366,50,0.6,15,0,0,280,60,31,52,5,0.1,0,7.31
8089,Uttar Pradesh,Gorakhpur,At Pwd Inspection Bunglow,83.4099,26.5357,2023,7.86,1230,0,390,142,0.39,55,23,0,460,60,74,69,4,0,0,12.35
8090,Uttar Pradesh,Gorakhpur,Block Office,83.4152,26.5161,2023,7.76,514,0,293,7,0.39,0,0,0,240,64,19,5,3,1.9,6,0
8091,Uttar Pradesh,Gorakhpur,Village- Mahopar; At The Back Of H/O,83.4308,26.51,2023,7.94,644,0,354,14,0.44,0,0,0,250,40,36,31,3,1.42,0,3.09
8092,Uttar Pradesh,Gorakhpur,Village- Rewradih; Near H/O Sitaram,83.41,26.5118,2023,7.54,1371,0,281,192,0.23,96,63,0,500,92,65,76,8,0.13,0,8.38
8093,Uttar Pradesh,Gorakhpur,Block Office,83.249,26.6646,2023,7.66,988,0,439,64,0.31,29,0,0,280,56,34,95,4,2.72,2,5
8094,Uttar Pradesh,Gorakhpur,Block Office,83.4406,26.717,2023,7.74,392,0,146,36,0.24,17,0,0,160,56,5,15,0,0,1,0
8095,Uttar Pradesh,Gorakhpur,Sonviya Aghar Bazar,83.4362,26.6341,2023,7.79,496,0,281,7,0.32,0,0,0,180,40,19,28,3,1.48,0,3.85
8096,Uttar Pradesh,Gorakhpur,Block Office,83.2039,26.8206,2023,8.15,644,0,354,21,0.53,0,0,0,250,60,24,32,3,1.36,1,0
8097,Uttar Pradesh,Gorakhpur,Block Office,83.5207,26.8203,2023,7.8,410,0,232,7,0.5,0,0,0,180,48,14,9,4,0.79,6,0
8098,Uttar Pradesh,Gorakhpur,Block Office,83.4406,26.717,2023,7.81,1015,0,366,99,1.49,32,10,0,390,56,60,50,2,0.19,0,4
8099,Uttar Pradesh,Gorakhpur,Block Office,83.1856,26.7513,2023,7.96,439,0,232,14,0.21,0,0,0,200,48,19,8,2,2.57,0,0
8100,Uttar Pradesh,Gorakhpur,Samuda,83.1561,26.6399,2023,7.95,618,0,329,14,0.56,0,0,0,280,36,46,10,3,0.41,0,0
8101,Uttar Pradesh,Gorakhpur,Block Office,83.547,26.6871,2023,8.04,356,0,159,14,0.62,21,0,0,140,40,10,15,3,1.71,1,0
8102,Uttar Pradesh,Gorakhpur,Block Office,83.2565,26.4648,2023,7.9,639,0,372,11,0.43,0,0,0,280,52,36,29,3,1.07,2,4
8103,Uttar Pradesh,Hamirpur,Hand Pump Of Block Office,79.5441,25.6911,2023,7.89,981,0,537,21,0.36,10,0,0,310,56,41,82,1,0.19,0,6
8104,Uttar Pradesh,Hamirpur,Jariya,79.6027,25.7608,2023,8.05,825,0,464,14,0.63,7,9,0,260,56,29,70,0,0.28,0,4.45
8105,Uttar Pradesh,Hamirpur,Jhabra,79.6479,25.8708,2023,7.86,1157,0,598,36,0.78,11,13,0,220,52,22,157,1,0.22,0,6.3
8106,Uttar Pradesh,Hamirpur,Rihunta,79.4803,25.7555,2023,7.96,750,0,415,14,0.49,0,7,0,280,64,29,41,2,0.11,0,4.74
8107,Uttar Pradesh,Hamirpur,Hand Pump Of Block Office,79.9845,25.9788,2023,8.01,957,0,464,43,0.44,15,14,0,230,44,29,108,2,0.16,0,4
8108,Uttar Pradesh,Hamirpur,Gadriya Khera,80.0383,25.6629,2023,7.91,1184,0,531,71,0.79,48,0,0,260,32,43,151,1,0.83,0,12.83
8109,Uttar Pradesh,Hamirpur,Hand Pump Of Block Office,79.9845,25.9788,2023,7.92,2071,0,720,135,0.65,229,15,0,330,44,53,323,1,0.27,0,12
8110,Uttar Pradesh,Hamirpur,Lohari,80.0578,25.7466,2023,7.91,636,0,329,14,0.82,12,12,0,210,48,22,49,0,0.24,0,0
8111,Uttar Pradesh,Hamirpur,Urdana,80.1758,25.6228,2023,7.98,2304,0,683,220,1.08,156,101,0,240,32,38,405,1,0.41,0,28.15
8112,Uttar Pradesh,Hamirpur,Bewar,79.9272,25.761,2023,7.96,1494,0,659,57,0.84,46,86,0,370,48,60,170,3,0.6,0,12
8113,Uttar Pradesh,Hamirpur,Hand Pump Of Block Office,79.7946,25.6604,2023,8.09,1983,0,781,185,0.67,51,44,0,660,88,106,149,2,0,0,8
8114,Uttar Pradesh,Hamirpur,Imaliya,79.9112,25.6592,2023,8.02,1569,0,683,71,1.35,37,79,0,230,32,36,247,1,0.15,1.06,19.52
8115,Uttar Pradesh,Hamirpur,Hand Pump Of Block Office,79.5761,25.5989,2023,7.65,3012,0,451,341,0.27,378,318,0,460,52,79,475,4,0.29,0,25
8116,Uttar Pradesh,Hamirpur,Khiriya,79.4962,25.6462,2023,7.99,735,0,403,14,0.78,0,10,0,270,52,34,42,1,0,0,6.3
8117,Uttar Pradesh,Hamirpur,Pathnouri,79.6248,25.5198,2023,7.92,1180,0,549,43,1.07,12,28,0,250,44,34,149,1,0.46,0,18.71
8118,Uttar Pradesh,Hamirpur,Hand Pump Of Block Office,79.6824,25.7729,2023,8.04,1941,0,647,192,0.52,96,73,0,480,60,79,184,64,1.07,2,9
8119,Uttar Pradesh,Hamirpur,Harsundi,79.7415,25.8694,2023,7.99,599,0,305,14,0.23,11,19,0,180,52,12,54,1,0.61,0,0
8120,Uttar Pradesh,Hamirpur,Deogaon,80.1932,25.8795,2023,8.07,784,0,439,7,0.62,6,7,0,250,40,36,60,2,0.06,0,5.55
8121,Uttar Pradesh,Hamirpur,Lalpura,80.0449,25.8618,2023,8.17,1688,0,927,36,0.9,9,8,0,230,28,38,275,0,0,0,14.79
8122,Uttar Pradesh,Hapur,Bajherakalan,77.7121,28.591,2023,7.71,480,0,268,7,1.1,24,5,0,210,40,27,18,4,0.1,0,17.56
8123,Uttar Pradesh,Hapur,In Block Office,77.6439,28.6331,2023,7.88,898,0,500,21,1.3,40,5,0,230,43,30,120,6,0.61,0,63.17
8124,Uttar Pradesh,Hapur,In Block Office,78.0883,28.7881,2023,7.89,1133,0,488,57,0.72,47,100,0,450,96,51,78,6,0.23,0,9.55
8126,Uttar Pradesh,Hapur,In Block Office,77.7569,28.7366,2023,7.74,755,0,439,21,1,15,8,0,185,36,23,102,6,2.61,0,20.86
8127,Uttar Pradesh,Hapur,On Rosd Side,77.8269,28.7849,2023,7.53,1425,0,500,113,0,50,125,0,260,46,35,223,6,0.17,0,14.89
8128,Uttar Pradesh,Hapur,Shiv Mandir Kakar,77.8279,28.6711,2023,7.94,680,0,317,14,0.3,32,53,0,205,46,22,71,5,6.67,3.84,14.63
8129,Uttar Pradesh,Hapur,In Block Office,78.0001,28.7673,2023,7.67,622,0,256,35,0.84,52,9,0,280,61,31,22,6,0.24,1.08,9.54
8130,Uttar Pradesh,Hardoi,Virsinghpur,79.8732,27.4195,2023,8.06,457,0,195,14,0.13,38,0,0,190,48,17,9,5,0.19,0,3.91
8131,Uttar Pradesh,Hardoi,Gangakheda,80.2864,27.0589,2023,7.84,718,0,232,50,0.43,78,0,0,260,60,26,40,4,1.32,3.22,0
8132,Uttar Pradesh,Hardoi,Kirtiyarpur,79.7964,27.2813,2023,8.18,1242,0,342,128,0.62,152,0,0,210,32,31,181,5,4.83,0,8.3
8133,Uttar Pradesh,Hardoi,Mubarakpur,79.789,27.4219,2023,8.14,419,0,207,14,0.36,14,0,0,160,32,19,20,4,0.58,0,11.06
8134,Uttar Pradesh,Hardoi,In Compound Of Bdo Office,80.3355,27.1633,2023,7.86,734,0,342,28,0.16,32,0,0,310,36,53,22,7,8.37,2,0
8135,Uttar Pradesh,Hardoi,Chandrapur,80.4616,27.1565,2023,7.96,618,0,317,14,0.67,8,0,0,240,36,36,28,4,0.47,1.11,7.27
8136,Uttar Pradesh,Hardoi,Dhaniganj,80.0194,27.0386,2023,8.19,549,0,293,14,0.4,0,0,0,180,70,1,39,4,1.97,1.97,3.24
8137,Uttar Pradesh,Hardoi,In Compound Of Bdo Office,80.1257,27.1174,2023,8.4,464,12,220,7,0.8,0,0,0,190,28,29,15,4,0,0,10
8138,Uttar Pradesh,Hardoi,In Compound Of Bdo Office,80.1547,27.0258,2023,7.88,840,0,342,64,1.16,34,7,0,320,52,46,43,6,0.16,1,35
8139,Uttar Pradesh,Hardoi,Arua,80.1607,27.5479,2023,7.94,594,0,342,7,0.57,0,0,0,240,40,34,22,5,2.27,5.31,4.09
8140,Uttar Pradesh,Hardoi,Gopamau,80.2847,27.5311,2023,8.04,612,0,262,60,0,24,0,0,240,44,31,30,6,0.48,2.2,5.86
8141,Uttar Pradesh,Hardoi,Rasoolpur,80.2837,27.6789,2023,8,602,0,281,43,0.15,0,0,0,260,40,38,11,4,0.48,2.09,0
8142,Uttar Pradesh,Hardoi,In Compound Of Bdo Office,79.964,27.2925,2023,7.89,699,0,281,36,0.33,28,30,0,300,56,38,18,9,0.48,0,49
8143,Uttar Pradesh,Hardoi,Kuliya,79.835,27.2267,2023,7.98,777,0,305,28,0.34,72,0,0,270,24,50,49,5,2.95,11.72,0
8144,Uttar Pradesh,Hardoi,Atwadanda,80.6044,27.0661,2023,7.87,782,0,354,28,0,32,0,0,300,60,36,32,8,3.46,0,0
8145,Uttar Pradesh,Hardoi,Bahuti Kalan,80.5655,27.1772,2023,8.08,700,0,336,28,0.13,14,0,0,280,52,36,25,10,0.3,0,0
8146,Uttar Pradesh,Hardoi,In Compound Of Bdo Office,80.5174,27.0566,2023,8.07,599,0,293,21,0.91,8,0,0,220,60,17,31,4,0,0,10
8147,Uttar Pradesh,Hardoi,Dariyapur Balbhadora,79.8662,27.5479,2023,8.23,462,0,244,7,0.18,0,0,0,160,40,14,27,4,1.2,1.36,0
8148,Uttar Pradesh,Hardoi,In Compound Of Bdo Office,79.9433,27.6486,2023,7.92,492,0,244,14,0.19,20,0,0,190,52,14,23,4,2.47,19,0
8149,Uttar Pradesh,Hardoi,In Compound Of Bdo Office,80.2406,27.4379,2023,8,612,0,281,28,0.56,24,0,0,240,48,29,25,4,0.98,20,0
8150,Uttar Pradesh,Hardoi,Tedwa Chatarpur,80.0249,27.6822,2023,8.12,583,0,305,14,0.3,0,0,0,240,36,36,13,17,0.57,2.23,17.48
8151,Uttar Pradesh,Hathras,Aharai,77.9512,27.5275,2023,7.86,9128,0,756,1772,0.5,1300,26,0,1800,208,311,1160,180,1.14,0,14
8152,Uttar Pradesh,Hathras,Block H.Q,78.2675,27.612,2023,7.77,931,0,342,113,0.3,38,15,0,260,52,31,98,22,0.39,0,10
8153,Uttar Pradesh,Hathras,Dist. H.Q,78.0551,27.573,2023,8.07,2246,0,769,170,1.28,131,89,0,410,40,74,301,54,0.19,1,44
8154,Uttar Pradesh,Hathras,Mohari,78.1531,27.6494,2023,8.96,2730,132,256,227,2.95,275,94,0,340,16,73,490,11,0,0,43.38
8155,Uttar Pradesh,Hathras,Singhal,78.1599,27.5217,2023,8.45,6105,48,390,851,1.32,1200,32,0,530,16,119,1150,10,0.2,0,118.81
8156,Uttar Pradesh,Hathras,Lutsan,78.1354,27.6483,2023,8.45,1462,18,305,106,0.95,133,0,0,200,28,31,250,4,0,0,16
8157,Uttar Pradesh,Hathras,Block H.Q,77.9411,27.5684,2023,7.95,3725,0,488,610,1,402,0,0,740,84,127,436,8,5.05,0,16
8158,Uttar Pradesh,Hathras,Rahna,78.0392,27.6587,2023,8.25,556,0,268,14,0.71,28,8,0,230,52,24,22,5,0.09,1,13
8159,Uttar Pradesh,Hathras,Block H.Q,78.0401,27.4466,2023,8.16,3678,0,451,425,1.5,670,0,0,440,44,79,582,4,2.21,0,0
8160,Uttar Pradesh,Hathras,Block H.Q,78.1374,27.4369,2023,8.03,1891,0,586,128,0.54,105,36,0,290,40,46,193,32,0.13,0,34
8161,Uttar Pradesh,Hathras,Block H.Q,78.0741,27.6911,2023,8.05,2403,0,720,227,0.86,156,36,0,400,48,67,291,4,0.45,0,41
8162,Uttar Pradesh,Hathras,Block H.Q,78.3707,27.6926,2023,8.27,482,0,195,14,1,27,0,0,170,36,19,17,3,0.75,1,8
8163,Uttar Pradesh,Jalaun,Garon,79.3464,25.8628,2023,7.99,564,0,293,21,0.46,7,0,0,220,44,26,28,2,0,0,4.7
8164,Uttar Pradesh,Jalaun,Kushmi Mauja,79.3189,25.9947,2023,8.06,996,0,464,50,0.67,29,0,0,350,48,55,65,2,0.14,1.42,5.48
8165,Uttar Pradesh,Jalaun,Block â Campus,79.4248,25.875,2023,7.8,1760,0,561,234,0.78,75,50,0,850,32,185,33,0,0.58,0,10
8166,Uttar Pradesh,Jalaun,Babai,79.4653,26.1714,2023,7.84,972,0,464,35,0.23,14,25,0,340,60,46,62,2,0.68,0,4.38
8167,Uttar Pradesh,Jalaun,Dadupur,79.7311,26.0119,2023,7.88,602,0,317,14,0.19,5,8,0,210,56,17,40,2,0.1,0,0
8168,Uttar Pradesh,Jalaun,Sandhi,79.6008,26.0042,2023,7.92,766,0,390,28,0.46,8,0,0,350,48,55,14,4,0.38,0,3.97
8169,Uttar Pradesh,Jalaun,Bilalya,79.1956,25.8758,2023,8,604,0,317,21,0.5,8,0,0,240,20,46,30,1,0.68,0,0
8170,Uttar Pradesh,Jalaun,Block â Campus,79.1618,26.0017,2023,7.83,1185,0,378,99,0.49,31,85,0,430,48,74,61,0,0.18,0,7
8171,Uttar Pradesh,Jalaun,Pahargaon,79.0672,25.8717,2023,7.57,838,0,293,92,0.27,28,10,0,340,76,36,35,2,0.33,0,4.61
8172,Uttar Pradesh,Jalaun,Swami,79.045,26.0169,2023,8.17,594,0,281,28,1.45,16,0,0,270,40,41,11,2,0.48,0,4.16
8173,Uttar Pradesh,Jalaun,Jakha Bambi,79.4453,26.2814,2023,7.94,502,0,244,14,0.52,19,0,0,230,48,26,8,0,0.87,0,3.3
8174,Uttar Pradesh,Jalaun,Rajpura,79.3017,26.255,2023,8.09,1354,0,561,99,0.66,33,13,0,400,32,77,120,2,0.62,0,7.94
8175,Uttar Pradesh,Jalaun,Madarpur,79.7364,26.14,2023,7.91,964,0,488,28,0.25,10,13,0,250,44,34,102,2,0.08,0,6.02
8176,Uttar Pradesh,Jalaun,Mahatwani,79.1986,26.1508,2023,8.03,880,0,439,28,0.35,5,16,0,330,88,26,47,1,0.42,0,0
8177,Uttar Pradesh,Jalaun,Block â Campus,79.1839,26.3481,2023,8.07,723,0,390,28,0.55,11,11,0,310,56,41,35,3,0.88,0,4
8178,Uttar Pradesh,Jalaun,Husepura Surai,79.3086,26.3642,2023,8.07,409,0,207,14,0.49,6,0,0,190,48,17,6,1,2.68,0,0
8179,Uttar Pradesh,Jaunpur,Bahripur,82.4453,25.9817,2023,8.37,881,48,439,14,0.85,5,15,0,380,60,55,48,2,0.24,0,14.63
8180,Uttar Pradesh,Jaunpur,Leduka Bazar,82.5519,25.8833,2023,8.09,827,0,500,14,0.77,22,0,0,220,32,34,104,2,0.08,0,9.43
8181,Uttar Pradesh,Jaunpur,In Primise Of Block Office,82.4714,25.5617,2023,8,792,0,390,28,0.55,21,20,0,310,40,50,37,4,0.89,0,22
8182,Uttar Pradesh,Jaunpur,Dharampur,82.7475,25.7525,2023,8.65,628,24,262,21,0.46,20,7,0,260,12,55,21,5,0.52,0,34
8183,Uttar Pradesh,Jaunpur,Dobhi,82.9978,25.5939,2023,7.71,699,0,390,14,0.82,0,0,0,240,44,31,48,3,0.64,0,7
8184,Uttar Pradesh,Jaunpur,Jalalpur,82.7586,25.6081,2023,7.84,699,0,366,14,1,15,11,0,280,60,31,31,2,0.16,0,7
8185,Uttar Pradesh,Jaunpur,In Jaunpur City,82.6844,25.7447,2023,7.94,1775,0,378,255,0.8,156,40,0,580,56,106,128,4,1.83,0,12
8186,Uttar Pradesh,Jaunpur,Karanjhakalan,82.6886,25.8044,2023,8.25,1220,0,476,113,1.5,34,0,0,330,44,53,118,3,0.2,0,23
8187,Uttar Pradesh,Jaunpur,Kerakat,82.9197,25.6456,2023,7.9,804,0,366,57,0.7,13,10,0,280,48,38,55,3,0,0,10
8188,Uttar Pradesh,Jaunpur,Khutahan,82.5783,25.98,2023,7.9,694,0,378,7,0.4,9,17,0,280,44,41,28,5,0.12,0,6
8189,Uttar Pradesh,Jaunpur,Block Office,82.2063,25.6461,2023,7.95,849,0,476,28,0.73,17,7,0,300,40,48,74,2,0.24,0,15
8190,Uttar Pradesh,Jaunpur,Block Office,82.3992,25.6682,2023,8.42,1343,60,476,78,1.04,135,0,0,210,24,36,243,1,0.09,0,30
8191,Uttar Pradesh,Jaunpur,Block Office,82.6142,25.64,2023,8,794,0,403,21,0.9,20,18,0,310,32,55,38,4,0.26,0,32
8192,Uttar Pradesh,Jaunpur,Block Office,82.8286,25.6975,2023,8.07,730,0,415,14,0.34,0,0,0,230,32,36,59,3,0.32,0,6
8193,Uttar Pradesh,Jaunpur,Block Office,82.1887,25.6563,2023,7.64,1232,0,390,121,0.29,80,115,0,460,76,65,89,10,1.09,0,8
8194,Uttar Pradesh,Jaunpur,In Primise Of Block Office,82.62,25.5553,2023,8.18,912,0,500,28,0.5,0,0,0,270,20,53,81,5,0.21,0,0
8195,Uttar Pradesh,Jaunpur,Dhanachu,82.7024,25.5077,2023,7.9,581,0,329,14,0.64,6,0,0,250,36,29,21,3,0,0,5.5
8196,Uttar Pradesh,Jaunpur,Rampur,82.5708,25.4903,2023,8.31,1162,12,561,35,1.1,39,0,0,160,20,26,188,5,0.11,0,31
8197,Uttar Pradesh,Jaunpur,Itwari Bazar,82.7104,25.8725,2023,7.93,287,0,134,14,0.92,21,0,0,140,52,12,5,2,0,0,4.94
8198,Uttar Pradesh,Jaunpur,Shahganj,82.675,25.9661,2023,7.96,628,0,305,28,0.5,14,0,0,210,44,24,43,5,0.08,0,4
8199,Uttar Pradesh,Jaunpur,Baraipur,82.4278,25.7642,2023,7.91,661,0,366,35,1.02,5,5,0,270,40,41,38,3,0,0,6.8
8200,Uttar Pradesh,Jaunpur,Block Office,82.7278,25.6717,2023,8.05,1725,0,659,149,0.9,94,0,0,430,36,82,193,1,8.09,0,36
8201,Uttar Pradesh,Jaunpur,Arsiya,82.5752,26.1294,2023,8.04,671,0,390,14,0.6,13,5,0,220,52,31,64,4,0.11,0,12.37
